property_id,id,full_address,street_address,unit,city,state,zip_code,county,latitude,longitude,property_type,bedrooms,bathrooms,sqft,lot_size_sqft,year_built,building_age,last_sale_price,last_sale_date,days_since_sale,price_per_sqft,assessed_value,tax_year,annual_tax,owner_name,owner_occupied,assessor_id,building_age_grp
P-100003,10003,"8885 Park Way, Apt 21C, Kansas City, MO 59615",8885 Park Way,Apt 21C,Kansas City,MO,59615,Jackson,23.088205,-131.49349,Townhouse,7,3.5,5329,8479,2010,14,174253.02,13/11/2018,2709,32.7,151316.0,2023,2999.49,Joseph Miller,True,MO-JA-69429,New
P-100005,10005,"625 Ridgewood Rd, Apt 14E, Tucson, AZ 62581",625 Ridgewood Rd,Apt 14E,Tucson,AZ,62581,Pima,28.095133,-138.644493,Townhouse,6,3.5,2341,13079,1983,41,428592.88,27/01/2019,2634,183.08,401872.5,2023,3888.34,Deborah Scott,True,AZ-PI-86622,Mid-age
P-100008,10008,"2746 Main St, Apt 22D, Cleveland, OH 88504",2746 Main St,Apt 22D,Cleveland,OH,88504,Cuyahoga,29.590136,-155.305523,Townhouse,7,3.0,2561,3510,1950,74,804847.49,26/05/2025,323,314.27,664559.38,2023,11824.03,Ronald Wright,False,OH-CU-26828,Old
P-100009,10009,"2805 Adams St, Apt 19E, Indianapolis, IN 79163",2805 Adams St,Apt 19E,Indianapolis,IN,79163,Marion,44.119476,-120.186999,Condo,5,2.5,6440,11547,1971,53,896216.5,30/12/2018,2662,139.16,817372.88,2024,10967.37,Sarah Anderson,True,IN-MA-12757,Old
P-100010,10010,"9741 Madison Ave, Apt 26D, Tucson, AZ 10942",9741 Madison Ave,Apt 26D,Tucson,AZ,10942,Pima,22.881317,-102.094043,Condo,1,1.0,3306,4466,1985,39,305643.61,12/10/2018,2741,92.45,289024.04,2024,2771.09,Kenneth Torres,True,AZ-PI-71993,Mid-age
P-100012,10012,"4663 Lakeshore Dr, Apt 6D, Decatur, GA 42742",4663 Lakeshore Dr,Apt 6D,Decatur,GA,42742,DeKalb,44.173878,-150.441515,Condo,1,1.0,5942,14798,1921,103,875817.08,31/10/2017,3087,147.39,923644.33,2022,11893.74,Steven Wilson,False,GA-DE-17685,Old
P-100013,10013,"6496 Adams St, Apt 17E, Austin, TX 69638",6496 Adams St,Apt 17E,Austin,TX,69638,Travis,28.559105,-96.396539,Condo,6,4.5,1868,4979,1957,67,289806.7,17/08/2025,240,155.14,282200.46,2024,5644.01,Daniel Brown,True,TX-TR-72493,Old
P-100015,10015,"5247 Monroe Blvd, Apt 29A, Naperville, IL 44814",5247 Monroe Blvd,Apt 29A,Naperville,IL,44814,DuPage,31.488325,-98.562951,Condo,4,3.5,1194,1346,1978,46,604504.22,20/12/2019,2307,506.28,664246.73,2022,13949.18,Paul Taylor,True,IL-DU-55745,Mid-age
P-100016,10016,"6154 Heritage Ln, Apt 10E, Charlotte, NC 30676",6154 Heritage Ln,Apt 10E,Charlotte,NC,30676,Mecklenburg,32.611891,-109.740037,Condo,5,5.0,664,11606,1990,34,353515.43,04/11/2018,2718,532.4,293798.17,2022,3282.78,Michael Mitchell,True,NC-ME-45697,Mid-age
P-100017,10017,"5717 Jefferson St, Apt 23D, Naperville, IL 93130",5717 Jefferson St,Apt 23D,Naperville,IL,93130,DuPage,43.60219,-113.029412,Condo,7,1.0,1356,11748,1974,50,766891.51,15/10/2025,181,565.55,614328.96,2022,12900.91,Thomas Hernandez,False,IL-DU-82309,Old
P-100019,10019,"5894 Willow Way, Apt 13A, Fort Lauderdale, FL 91351",5894 Willow Way,Apt 13A,Fort Lauderdale,FL,91351,Broward,40.861157,-76.458547,Condo,7,2.0,2050,8805,1923,101,259901.32,23/07/2022,1361,126.78,268924.04,2023,4740.28,Deborah Thomas,True,FL-BR-24168,Old
P-100020,10020,"3744 Lincoln Rd, Apt 11A, Rockville, MD 70332",3744 Lincoln Rd,Apt 11A,Rockville,MD,70332,Montgomery,30.265948,-85.613335,Condo,2,1.0,6006,9170,1971,53,693914.34,03/08/2016,3541,115.54,569583.09,2023,6956.75,Paul Sanchez,False,MD-MO-80282,Old
P-100022,10022,"8618 Lincoln Rd, Apt 14D, Austin, TX 57739",8618 Lincoln Rd,Apt 14D,Austin,TX,57739,Travis,32.429381,-74.44792,Townhouse,5,3.5,6034,8075,2012,12,822036.53,05/08/2020,2078,136.23,733902.21,2023,14678.04,George Jackson,True,TX-TR-35144,New
P-100023,10023,"9424 Clearwater Ct, Apt 17E, Atlanta, GA 63225",9424 Clearwater Ct,Apt 17E,Atlanta,GA,63225,Fulton,35.520336,-156.964683,Condo,2,4.0,5351,15290,2003,21,371354.4,30/04/2021,1810,69.4,346342.92,2022,4895.24,Deborah Hernandez,False,GA-FU-47196,Mid-age
P-100025,10025,"2517 Main St, Apt 20E, Charlotte, NC 23970",2517 Main St,Apt 20E,Charlotte,NC,23970,Mecklenburg,41.628141,-137.960821,Condo,4,1.0,5166,9248,1935,89,476040.22,18/04/2017,3283,92.15,447188.84,2024,8878.8,Joshua Lee,False,NC-ME-68008,Old
P-100026,10026,"9076 Harbor View Blvd, Apt 11E, Minneapolis, MN 30861",9076 Harbor View Blvd,Apt 11E,Minneapolis,MN,30861,Hennepin,40.706869,-115.703324,Condo,7,2.5,5823,10366,2018,6,726586.37,06/11/2020,1985,124.78,717885.16,2023,9532.42,Melissa Jackson,True,MN-HE-54020,New
P-100027,10027,"2367 Sunset Blvd, Apt 28E, San Francisco, CA 40311",2367 Sunset Blvd,Apt 28E,San Francisco,CA,40311,San Francisco,31.150435,-143.705942,Condo,1,4.0,3939,9360,1989,35,1871069.13,01/08/2025,256,475.01,1612955.74,2023,20442.15,Stephanie Nguyen,False,CA-SA-12560,Mid-age
P-100030,10030,"1441 Riverside Dr, Apt 19B, Raleigh, NC 12540",1441 Riverside Dr,Apt 19B,Raleigh,NC,12540,Wake,40.849143,-152.468552,Townhouse,2,1.5,5939,6598,2016,8,144203.4,06/07/2023,1013,24.28,123987.27,2022,1916.35,Sarah Rodriguez,True,NC-WA-24993,New
P-100032,10032,"1769 Clearwater Ct, Apt 21D, Charlotte, NC 99687",1769 Clearwater Ct,Apt 21D,Charlotte,NC,99687,Mecklenburg,36.910908,-146.468209,Townhouse,7,1.0,3444,12172,1974,50,635986.65,05/07/2025,283,184.67,605324.61,2023,4934.5,Mark Young,True,NC-ME-57472,Old
P-100033,10033,"7235 Washington Ave, Apt 20D, Queens, NY 78386",7235 Washington Ave,Apt 20D,Queens,NY,78386,Queens,46.585054,-133.502832,Condo,7,4.5,4408,11544,2013,11,2257047.59,01/09/2022,1321,512.03,2382345.21,2022,52411.59,Donald Thomas,False,NY-QU-84691,New
P-100035,10035,"8141 Harbor View Blvd, Apt 24B, Boise, ID 12260",8141 Harbor View Blvd,Apt 24B,Boise,ID,12260,Ada,23.465914,-137.721113,Condo,3,3.5,4476,13544,1987,37,388130.77,01/12/2017,3056,86.71,374591.43,2023,6156.13,Karen Martin,True,ID-AD-25814,Mid-age
P-100036,10036,"2058 Washington Ave, Apt 2E, Las Vegas, NV 35105",2058 Washington Ave,Apt 2E,Las Vegas,NV,35105,Clark,26.734193,-114.874723,Townhouse,7,5.0,5488,10124,1932,92,769450.12,17/12/2022,1214,140.21,668071.18,2022,7767.8,Melissa Wright,True,NV-CL-15965,Old
P-100042,10042,"759 Washington Ave, Apt 10D, Lexington, KY 71669",759 Washington Ave,Apt 10D,Lexington,KY,71669,Fayette,34.752542,-118.526042,Condo,2,4.0,5800,13856,1931,93,486608.11,14/09/2021,1673,83.9,437943.66,2024,4053.26,William Perez,True,KY-FA-74942,Old
P-100046,10046,"8418 Jackson Dr, Apt 19D, Nashville, TN 10336",8418 Jackson Dr,Apt 19D,Nashville,TN,10336,Davidson,28.495233,-131.025641,Townhouse,5,4.5,1817,9133,1988,36,497786.28,22/07/2022,1362,273.96,480650.1,2024,6020.87,Daniel Gonzalez,False,TN-DA-41300,Mid-age
P-100048,10048,"2461 Willow Way, Apt 20A, Houston, TX 95823",2461 Willow Way,Apt 20A,Houston,TX,95823,Harris,46.703855,-150.489942,Condo,3,4.0,5923,7238,1962,62,784826.24,24/08/2016,3520,132.5,753501.23,2023,15070.02,Ronald Young,False,TX-HA-14705,Old
P-100050,10050,"2885 Washington Ave, Apt 12E, Decatur, GA 20350",2885 Washington Ave,Apt 12E,Decatur,GA,20350,DeKalb,37.151532,-123.718646,Condo,4,2.0,2502,10057,2001,23,318102.32,03/06/2023,1046,127.14,318118.93,2023,5985.25,Amanda Wright,True,GA-DE-67898,Mid-age
P-100052,10052,"8238 Heritage Ln, Apt 2E, San Diego, CA 40162",8238 Heritage Ln,Apt 2E,San Diego,CA,40162,San Diego,37.087222,-126.348077,Condo,5,3.0,6152,17963,2018,6,2460503.7,18/11/2016,3434,399.95,2069366.71,2022,38988.62,Carol Williams,True,CA-SA-67779,New
P-100053,10053,"2253 Pine Rd, Apt 15A, Columbus, OH 48680",2253 Pine Rd,Apt 15A,Columbus,OH,48680,Franklin,29.658057,-120.851231,Condo,2,5.0,3597,12294,1984,40,832519.84,20/12/2016,3402,231.45,707111.82,2023,13865.48,Charles Mitchell,False,OH-FR-25095,Mid-age
P-100058,10058,"9180 Jefferson St, Apt 5A, Oakland, CA 86858",9180 Jefferson St,Apt 5A,Oakland,CA,86858,Alameda,26.722711,-81.336498,Townhouse,7,2.0,5482,5528,1955,69,3068138.69,29/08/2024,593,559.68,3363472.17,2024,37024.6,Susan Davis,False,CA-AL-13379,Old
P-100064,10064,"1982 Jackson Dr, Apt 28B, Cleveland, OH 85248",1982 Jackson Dr,Apt 28B,Cleveland,OH,85248,Cuyahoga,26.993216,-119.66722,Condo,7,5.0,815,10792,2004,20,766979.42,14/04/2023,1096,941.08,620245.48,2023,10192.11,Lisa Perez,True,OH-CU-33777,Mid-age
P-100067,10067,"844 Madison Ave, Apt 18C, Lakewood, CO 61807",844 Madison Ave,Apt 18C,Lakewood,CO,61807,Jefferson,47.08781,-152.23397,Condo,3,2.5,1724,5910,1957,67,693746.83,13/03/2026,32,402.41,658515.31,2023,6656.5,Anthony Wright,False,CO-JE-75570,Old
P-100068,10068,"6605 Maple Dr, Apt 3D, Irvine, CA 67176",6605 Maple Dr,Apt 3D,Irvine,CA,67176,Orange,21.496651,-76.858868,Townhouse,5,4.0,5297,11923,2010,14,2402432.09,14/01/2023,1186,453.55,2004954.53,2022,39285.87,William Flores,True,CA-OR-57428,New
P-100069,10069,"4086 Summit Rd, Apt 27B, Fort Lauderdale, FL 87184",4086 Summit Rd,Apt 27B,Fort Lauderdale,FL,87184,Broward,31.61192,-150.157703,Condo,6,3.5,2415,7871,2019,5,251143.51,23/07/2020,2091,103.99,248623.89,2024,3510.43,Stephanie Thompson,True,FL-BR-94599,New
P-100071,10071,"2573 Harbor View Blvd, Apt 20E, Las Vegas, NV 18950",2573 Harbor View Blvd,Apt 20E,Las Vegas,NV,18950,Clark,33.426409,-102.069495,Condo,5,1.0,3483,11795,1929,95,362118.12,19/03/2021,1852,103.97,293779.98,2023,5282.27,John Adams,False,NV-CL-21835,Old
P-100073,10073,"7272 Harbor View Blvd, Apt 9E, Charlotte, NC 78690",7272 Harbor View Blvd,Apt 9E,Charlotte,NC,78690,Mecklenburg,34.852823,-143.18908,Townhouse,3,4.0,3948,9491,2006,18,586350.97,07/06/2017,3233,148.52,580057.06,2023,5099.25,Michael Scott,False,NC-ME-47243,New
P-100075,10075,"7037 Birch St, Apt 22C, Sacramento, CA 57425",7037 Birch St,Apt 22C,Sacramento,CA,57425,Sacramento,21.483109,-130.128652,Condo,3,4.5,2172,5883,1937,87,922582.78,19/12/2022,1212,424.76,971782.75,2022,13694.63,Andrew Mitchell,False,CA-SA-14947,Old
P-100076,10076,"2247 Forest Glen Rd, Apt 18B, Omaha, NE 30218",2247 Forest Glen Rd,Apt 18B,Omaha,NE,30218,Douglas,25.299551,-84.67298,Townhouse,7,2.0,4185,4900,1972,52,404153.54,19/03/2018,2948,96.57,352122.43,2023,5397.03,Ronald Mitchell,False,NE-DO-40671,Old
P-100085,10085,"4913 Ridgewood Rd, Apt 3D, Provo, UT 23447",4913 Ridgewood Rd,Apt 3D,Provo,UT,23447,Utah,23.121826,-99.500028,Condo,4,4.0,1965,13266,1976,48,394206.65,22/10/2025,174,200.61,401319.84,2023,6171.58,Sandra Moore,False,UT-UT-17518,Mid-age
P-100087,10087,"7373 Elm St, Apt 20C, Cleveland, OH 85225",7373 Elm St,Apt 20C,Cleveland,OH,85225,Cuyahoga,24.64892,-125.075354,Townhouse,6,3.0,2644,4502,1923,101,693826.39,07/09/2020,2045,262.42,662828.71,2024,6239.29,Stephanie Taylor,False,OH-CU-38124,Old
P-100091,10091,"8588 Sunset Blvd, Apt 19E, Tampa, FL 49862",8588 Sunset Blvd,Apt 19E,Tampa,FL,49862,Hillsborough,25.363413,-128.928515,Condo,3,5.0,2926,4218,1952,72,273115.5,08/02/2020,2257,93.34,240979.45,2024,2803.53,Andrew Garcia,True,FL-HI-32103,Old
P-100096,10096,"4781 Main St, Apt 9E, Rockville, MD 24089",4781 Main St,Apt 9E,Rockville,MD,24089,Montgomery,32.419586,-80.226351,Townhouse,7,4.0,3597,4338,1971,53,361389.22,25/12/2019,2302,100.47,310215.27,2024,3556.07,Anthony Allen,True,MD-MO-82070,Old
P-100097,10097,"2046 Lake Dr, Apt 20E, Wichita, KS 22672",2046 Lake Dr,Apt 20E,Wichita,KS,22672,Sedgwick,31.438448,-87.843941,Townhouse,5,3.5,1781,5042,1997,27,517115.56,03/09/2020,2049,290.35,419937.38,2022,4050.06,Nancy Walker,True,KS-SE-29521,Mid-age
P-100098,10098,"5473 Ridgewood Rd, Apt 10A, Brooklyn, NY 31299",5473 Ridgewood Rd,Apt 10A,Brooklyn,NY,31299,Kings,31.413297,-103.364458,Condo,5,3.5,4755,13106,1988,36,1944032.29,21/12/2019,2306,408.84,1730066.59,2022,38061.46,Amanda Davis,False,NY-KI-86507,Mid-age
P-100099,10099,"7875 Adams St, Apt 7A, Oklahoma City, OK 95929",7875 Adams St,Apt 7A,Oklahoma City,OK,95929,Oklahoma,41.746956,-89.473904,Townhouse,2,1.0,5380,13251,1941,83,528901.22,13/03/2018,2954,98.31,521454.68,2023,5096.34,Amanda Thomas,True,OK-OK-24404,Old
P-100100,10100,"5239 Willow Way, Apt 30E, Portland, OR 29848",5239 Willow Way,Apt 30E,Portland,OR,29848,Multnomah,31.943443,-139.261424,Condo,7,4.5,1110,12673,1937,87,922419.85,29/12/2019,2298,831.01,827885.52,2024,11375.52,Anthony Lee,False,OR-MU-70249,Old
P-100101,10101,"9050 Hillcrest Ave, Apt 11D, Nashville, TN 98587",9050 Hillcrest Ave,Apt 11D,Nashville,TN,98587,Davidson,41.457729,-94.279563,Condo,5,4.5,2175,6213,1955,69,555307.59,05/10/2023,922,255.31,601090.29,2023,10371.27,Melissa Wilson,False,TN-DA-74094,Old
P-100103,10103,"9308 Jackson Dr, Apt 18B, Seattle, WA 27992",9308 Jackson Dr,Apt 18B,Seattle,WA,27992,King,23.894504,-92.542485,Condo,2,1.0,6087,14787,1948,76,2395730.95,10/09/2025,216,393.58,1988598.97,2023,33027.24,Michael Baker,False,WA-KI-10679,Old
P-100104,10104,"7893 Riverside Dr, Apt 30A, Philadelphia, PA 95267",7893 Riverside Dr,Apt 30A,Philadelphia,PA,95267,Philadelphia,26.285583,-73.139479,Townhouse,3,1.0,1332,12019,1993,31,301131.76,31/12/2017,3026,226.07,306231.52,2022,5805.77,Susan Clark,False,PA-PH-33040,Mid-age
P-100105,10105,"8216 Washington Ave, Apt 11B, Troy, MI 47941",8216 Washington Ave,Apt 11B,Troy,MI,47941,Oakland,44.233694,-156.193756,Townhouse,5,1.5,3344,8006,1978,46,891497.59,10/03/2020,2226,266.6,853426.69,2022,15543.22,Ashley Moore,True,MI-OA-24764,Mid-age
P-100106,10106,"4315 Washington Ave, Apt 16C, Kansas City, MO 11846",4315 Washington Ave,Apt 16C,Kansas City,MO,11846,Jackson,40.520374,-88.203213,Townhouse,6,2.5,2037,12046,2001,23,819693.35,03/01/2017,3388,402.4,760930.33,2023,6879.46,Brian Miller,True,MO-JA-28430,Mid-age
P-100107,10107,"211 Adams St, Apt 23A, Charlotte, NC 60275",211 Adams St,Apt 23A,Charlotte,NC,60275,Mecklenburg,27.241313,-91.423171,Townhouse,3,1.0,2742,13451,1966,58,660359.5,02/08/2025,255,240.83,660581.27,2023,7716.7,Betty Baker,True,NC-ME-50760,Old
P-100109,10109,"8709 Harbor View Blvd, Apt 3E, San Francisco, CA 79228",8709 Harbor View Blvd,Apt 3E,San Francisco,CA,79228,San Francisco,39.649802,-150.205063,Townhouse,1,1.0,5086,13367,1945,79,2196740.11,08/08/2024,614,431.92,1865825.7,2024,24819.38,Amanda Wilson,False,CA-SA-74071,Old
P-100114,10114,"9561 Ridgewood Rd, Apt 21D, Las Vegas, NV 41051",9561 Ridgewood Rd,Apt 21D,Las Vegas,NV,41051,Clark,28.996758,-144.536342,Condo,2,4.0,3061,7569,1927,97,554240.13,25/08/2019,2424,181.07,589663.93,2022,9146.82,Sandra Scott,True,NV-CL-55143,Old
P-100115,10115,"5322 Willow Way, Apt 8C, Columbia, SC 63511",5322 Willow Way,Apt 8C,Columbia,SC,63511,Richland,24.954267,-124.247964,Condo,4,2.5,2446,7373,2010,14,232594.36,02/02/2021,1897,95.09,249904.58,2024,3236.8,Mark Scott,True,SC-RI-60910,New
P-100116,10116,"5511 Pine Rd, Apt 10A, Naperville, IL 68954",5511 Pine Rd,Apt 10A,Naperville,IL,68954,DuPage,43.449035,-148.955632,Condo,1,3.0,3689,14726,1997,27,590279.2,26/06/2016,3579,160.01,485112.28,2024,10187.36,Emily Wilson,True,IL-DU-53642,Mid-age
P-100117,10117,"3213 Park Way, Apt 4D, Waukegan, IL 72773",3213 Park Way,Apt 4D,Waukegan,IL,72773,Lake,45.232694,-96.480513,Condo,4,2.5,5122,10391,2019,5,340786.17,20/01/2021,1910,66.53,327187.11,2023,6870.93,Margaret Allen,False,IL-LA-71080,New
P-100121,10121,"6839 Main St, Apt 27C, Indianapolis, IN 12192",6839 Main St,Apt 27C,Indianapolis,IN,12192,Marion,35.029568,-133.097556,Condo,1,5.0,6316,17359,1975,49,748810.81,09/04/2024,735,118.56,623089.17,2022,8905.58,Sarah Gonzalez,False,IN-MA-43084,Mid-age
P-100122,10122,"6602 Pine Rd, Apt 21A, Seattle, WA 58896",6602 Pine Rd,Apt 21A,Seattle,WA,58896,King,46.421392,-117.067196,Condo,6,2.5,3057,14264,1930,94,2443893.94,28/08/2016,3516,799.44,2431597.09,2022,22181.04,Anthony Harris,True,WA-KI-17355,Old
P-100125,10125,"5766 Cedar Ln, Apt 22D, Boston, MA 22803",5766 Cedar Ln,Apt 22D,Boston,MA,22803,Suffolk,32.582839,-84.035305,Townhouse,5,4.0,3273,3758,2001,23,1283647.44,25/03/2021,1846,392.19,1215846.51,2023,17795.68,Anthony Ramirez,True,MA-SU-86791,Mid-age
P-100129,10129,"2319 Clearwater Ct, Apt 16C, Fort Lauderdale, FL 10887",2319 Clearwater Ct,Apt 16C,Fort Lauderdale,FL,10887,Broward,46.143822,-128.097102,Townhouse,4,3.5,4206,9690,1975,49,756070.87,23/08/2016,3521,179.76,752525.7,2024,7249.45,Daniel Hill,False,FL-BR-36326,Mid-age
P-100130,10130,"6624 Ridgewood Rd, Apt 1D, Atlanta, GA 48200",6624 Ridgewood Rd,Apt 1D,Atlanta,GA,48200,Fulton,40.474171,-101.937486,Townhouse,7,2.5,3269,9430,1955,69,756865.72,16/11/2021,1610,231.53,688372.9,2024,7157.43,Andrew Lopez,False,GA-FU-82102,Old
P-100132,10132,"6666 Birch St, Apt 22D, New Orleans, LA 64827",6666 Birch St,Apt 22D,New Orleans,LA,64827,Orleans,35.406598,-88.20728,Townhouse,6,5.0,5464,15919,1930,94,205308.15,02/07/2023,1017,37.57,204749.81,2023,2046.69,Michelle Williams,True,LA-OR-94545,Old
P-100133,10133,"7152 River Blvd, Apt 30A, Reno, NV 11382",7152 River Blvd,Apt 30A,Reno,NV,11382,Washoe,23.613074,-137.685906,Condo,5,2.5,4251,10380,1970,54,481189.3,30/08/2018,2784,113.19,469918.4,2024,4609.4,Mary Walker,True,NV-WA-64522,Old
P-100134,10134,"2421 Hillcrest Ave, Apt 21A, Orlando, FL 50880",2421 Hillcrest Ave,Apt 21A,Orlando,FL,50880,Orange,30.091267,-88.76851,Condo,4,3.5,4500,6099,1976,48,683155.28,17/03/2021,1854,151.81,611883.63,2023,5223.16,Melissa Davis,True,FL-OR-54967,Mid-age
P-100138,10138,"9871 Lake Dr, Apt 27D, Pittsburgh, PA 85340",9871 Lake Dr,Apt 27D,Pittsburgh,PA,85340,Allegheny,31.168314,-140.839428,Condo,6,2.0,5145,7878,1982,42,345291.12,08/03/2024,767,67.11,308819.4,2023,4765.99,Matthew Smith,True,PA-AL-35575,Mid-age
P-100140,10140,"9106 Birch St, Apt 15C, Arlington, VA 24838",9106 Birch St,Apt 15C,Arlington,VA,24838,Arlington,36.176922,-133.693665,Condo,7,3.5,5040,5721,2017,7,1162776.29,27/02/2020,2238,230.71,1006455.65,2023,9288.58,Carol Carter,True,VA-AR-14224,New
P-100141,10141,"1525 Harbor View Blvd, Apt 20E, Memphis, TN 25386",1525 Harbor View Blvd,Apt 20E,Memphis,TN,25386,Shelby,41.554239,-136.385693,Townhouse,6,3.5,6422,16420,2000,24,453970.31,17/05/2019,2524,70.69,382138.81,2022,6787.69,Patricia Torres,True,TN-SH-46842,Mid-age
P-100144,10144,"5969 Elm St, Apt 21D, Honolulu, HI 80048",5969 Elm St,Apt 21D,Honolulu,HI,80048,Honolulu,31.539471,-72.772814,Condo,4,3.0,3244,7890,1963,61,2119297.13,26/10/2024,535,653.3,2055384.71,2023,35886.28,Amanda Carter,True,HI-HO-23051,Old
P-100146,10146,"948 Creekside Dr, Apt 27A, Hempstead, NY 91999",948 Creekside Dr,Apt 27A,Hempstead,NY,91999,Nassau,29.095995,-96.148601,Condo,4,1.5,6364,7923,1920,104,1100934.59,29/05/2025,320,172.99,924575.81,2022,20340.67,Donald Smith,True,NY-NA-55032,Old
P-100149,10149,"1480 Monroe Blvd, Apt 8D, Tacoma, WA 82534",1480 Monroe Blvd,Apt 8D,Tacoma,WA,82534,Pierce,36.926475,-94.257371,Condo,7,1.0,5993,10935,1946,78,2029134.84,26/07/2020,2088,338.58,1738144.64,2023,20069.5,Patricia Thomas,True,WA-PI-24777,Old
P-100150,10150,"9830 Elm St, Apt 1C, Honolulu, HI 79243",9830 Elm St,Apt 1C,Honolulu,HI,79243,Honolulu,44.5512,-155.95017,Townhouse,3,2.0,3768,13080,1973,51,1564508.01,16/08/2018,2798,415.21,1332696.57,2023,25925.53,Stephanie Jones,True,HI-HO-18851,Old
P-100151,10151,"752 Cedar Ln, Apt 26B, Waukegan, IL 62163",752 Cedar Ln,Apt 26B,Waukegan,IL,62163,Lake,34.425181,-102.314349,Condo,7,4.0,4069,15567,1971,53,184293.69,07/04/2020,2198,45.29,177160.9,2022,3720.38,Lisa Garcia,True,IL-LA-36633,Old
P-100153,10153,"307 Lake Dr, Apt 17A, Tampa, FL 11487",307 Lake Dr,Apt 17A,Tampa,FL,11487,Hillsborough,25.341565,-74.08759,Condo,5,3.0,1967,8059,1936,88,704825.58,27/06/2016,3578,358.33,620690.09,2022,10711.35,Mary Perez,False,FL-HI-45649,Old
P-100156,10156,"3756 Maple Dr, Apt 19D, Atlanta, GA 62550",3756 Maple Dr,Apt 19D,Atlanta,GA,62550,Fulton,22.826551,-116.536807,Condo,7,3.0,3281,4696,1990,34,476262.02,22/02/2022,1512,145.16,409681.23,2024,7134.22,Deborah Flores,True,GA-FU-58270,Mid-age
P-100157,10157,"9054 Monroe Blvd, Apt 8D, Chicago, IL 29735",9054 Monroe Blvd,Apt 8D,Chicago,IL,29735,Cook,21.169014,-121.326858,Condo,5,3.5,5809,17170,1921,103,861772.4,08/04/2026,6,148.35,885625.18,2023,18598.13,Timothy Martin,True,IL-CO-79443,Old
P-100158,10158,"1081 Sunset Blvd, Apt 8C, Fairfax, VA 46677",1081 Sunset Blvd,Apt 8C,Fairfax,VA,46677,Fairfax,23.465206,-76.849127,Condo,4,3.5,4355,5746,1994,30,414692.41,14/10/2024,547,95.22,411028.48,2023,3657.32,Kenneth Brown,True,VA-FA-27132,Mid-age
P-100160,10160,"4441 Park Way, Apt 28D, St. Louis, MO 21851",4441 Park Way,Apt 28D,St. Louis,MO,21851,St. Louis,25.176807,-97.313229,Townhouse,1,2.5,3285,5715,1931,93,674702.77,17/04/2022,1458,205.39,619966.39,2022,9997.7,Thomas Lopez,True,MO-ST-63004,Old
P-100162,10162,"1156 Lincoln Rd, Apt 7B, Dallas, TX 94670",1156 Lincoln Rd,Apt 7B,Dallas,TX,94670,Dallas,32.75093,-145.795135,Townhouse,1,1.0,4376,5205,1941,83,840822.75,04/06/2021,1775,192.14,879925.73,2023,17598.51,Anthony Baker,True,TX-DA-56392,Old
P-100163,10163,"4685 Harbor View Blvd, Apt 26A, Tacoma, WA 29481",4685 Harbor View Blvd,Apt 26A,Tacoma,WA,29481,Pierce,21.91821,-103.13164,Condo,6,3.0,4686,11436,1990,34,1911044.34,19/04/2025,360,407.82,1689234.77,2022,22012.11,Carol King,True,WA-PI-81258,Mid-age
P-100164,10164,"5983 Riverside Dr, Apt 8B, Cincinnati, OH 81371",5983 Riverside Dr,Apt 8B,Cincinnati,OH,81371,Hamilton,41.70803,-127.069032,Townhouse,5,3.5,3781,8211,1943,81,140329.11,03/08/2019,2446,37.11,121483.76,2023,1057.28,Steven King,True,OH-HA-86544,Old
P-100171,10171,"3795 Broadway, Apt 29D, Lexington, KY 69151",3795 Broadway,Apt 29D,Lexington,KY,69151,Fayette,22.953299,-83.418664,Condo,1,3.5,2739,4454,1929,95,386610.4,29/04/2016,3637,141.15,352835.1,2024,3140.24,Jennifer Perez,True,KY-FA-90431,Old
P-100173,10173,"8143 Sunset Blvd, Apt 16C, Indianapolis, IN 17144",8143 Sunset Blvd,Apt 16C,Indianapolis,IN,17144,Marion,30.561966,-119.798282,Condo,7,4.5,2235,3824,1923,101,281423.33,15/02/2019,2615,125.92,249775.43,2022,3417.64,Linda Martin,False,IN-MA-71727,Old
P-100185,10185,"5427 Jackson Dr, Apt 16C, Tacoma, WA 44229",5427 Jackson Dr,Apt 16C,Tacoma,WA,44229,Pierce,38.38717,-74.159662,Condo,2,2.0,4837,8774,1927,97,2906560.96,14/04/2017,3287,600.9,3031568.35,2023,48281.86,Amanda Rodriguez,False,WA-PI-95904,Old
P-100186,10186,"6957 Creekside Dr, Apt 27E, Durham, NC 60891",6957 Creekside Dr,Apt 27E,Durham,NC,60891,Durham,40.523401,-106.276938,Townhouse,7,2.5,3411,15314,2011,13,293443.29,15/04/2020,2190,86.03,290947.28,2023,5492.6,Brian Thompson,True,NC-DU-32280,New
P-100187,10187,"4913 River Blvd, Apt 15A, Decatur, GA 71706",4913 River Blvd,Apt 15A,Decatur,GA,71706,DeKalb,24.39052,-134.497289,Condo,7,2.0,6168,11667,2003,21,189653.86,19/04/2022,1456,30.75,164429.59,2023,2145.09,Nancy White,True,GA-DE-48541,Mid-age
P-100199,10199,"1137 Adams St, Apt 21D, Los Angeles, CA 95848",1137 Adams St,Apt 21D,Los Angeles,CA,95848,Los Angeles,29.327306,-95.702569,Condo,7,2.5,6087,11629,1986,38,2045464.68,05/06/2018,2870,336.04,2015747.57,2023,32132.14,Sarah Walker,True,CA-LO-98643,Mid-age
P-100202,10202,"5090 Birch St, Apt 8A, Honolulu, HI 83706",5090 Birch St,Apt 8A,Honolulu,HI,83706,Honolulu,26.481558,-98.58173,Townhouse,3,1.0,2426,9871,1962,62,2158460.08,02/05/2019,2539,889.72,2115259.25,2024,33603.02,Melissa Lewis,True,HI-HO-96364,Old
P-100204,10204,"1865 Willow Way, Apt 16E, Nashville, TN 16094",1865 Willow Way,Apt 16E,Nashville,TN,16094,Davidson,45.555603,-84.140437,Townhouse,1,4.5,4346,15134,1995,29,865828.45,09/10/2024,552,199.22,943022.62,2022,13545.93,Patricia Scott,False,TN-DA-86692,Mid-age
P-100205,10205,"9579 Washington Ave, Apt 14E, Atlanta, GA 26827",9579 Washington Ave,Apt 14E,Atlanta,GA,26827,Fulton,23.74418,-99.795602,Townhouse,3,5.0,3751,10610,1997,27,834409.99,25/09/2017,3123,222.45,729667.87,2023,14274.58,Charles Lewis,False,GA-FU-28111,Mid-age
P-100206,10206,"4997 Ridgewood Rd, Apt 25C, Cambridge, MA 82559",4997 Ridgewood Rd,Apt 25C,Cambridge,MA,82559,Middlesex,37.763457,-139.52265,Townhouse,6,3.0,6224,11881,2006,18,854648.77,26/04/2018,2910,137.32,850397.68,2022,11945.3,George Green,True,MA-MI-25126,New
P-100207,10207,"7970 Willow Way, Apt 9B, Fort Wayne, IN 98374",7970 Willow Way,Apt 9B,Fort Wayne,IN,98374,Allen,40.818521,-83.799131,Condo,7,4.0,704,9268,1933,91,139712.27,26/08/2024,596,198.45,113993.97,2022,1185.4,Ronald Hernandez,False,IN-AL-99573,Old
P-100214,10214,"8519 Pine Rd, Apt 21A, Henderson, NV 22577",8519 Pine Rd,Apt 21A,Henderson,NV,22577,Clark,25.435962,-73.80397,Condo,5,1.0,5735,6807,1946,78,642861.4,10/08/2017,3169,112.09,555401.74,2024,7270.49,Michael Wilson,True,NV-CL-67047,Old
P-100216,10216,"8862 Main St, Apt 1D, Tampa, FL 94072",8862 Main St,Apt 1D,Tampa,FL,94072,Hillsborough,40.087571,-151.49833,Townhouse,1,1.5,3530,11768,1933,91,346072.55,04/08/2018,2810,98.04,308144.8,2022,3506.14,Donald Harris,True,FL-HI-96602,Old
P-100218,10218,"8900 Pine Rd, Apt 28E, Troy, MI 49936",8900 Pine Rd,Apt 28E,Troy,MI,49936,Oakland,26.566402,-92.495548,Townhouse,2,4.0,5891,14288,1938,86,245544.4,22/10/2023,905,41.68,241877.31,2023,2499.06,Susan Nelson,False,MI-OA-17128,Old
P-100219,10219,"9105 Elm St, Apt 20C, St. Louis, MO 48096",9105 Elm St,Apt 20C,St. Louis,MO,48096,St. Louis,38.799659,-135.190178,Condo,6,4.5,3310,9161,1936,88,643610.54,27/08/2023,961,194.44,534205.45,2024,4721.15,Richard Lee,True,MO-ST-53036,Old
P-100220,10220,"2596 Meadow Ln, Apt 16E, New Orleans, LA 51462",2596 Meadow Ln,Apt 16E,New Orleans,LA,51462,Orleans,46.404461,-142.328363,Townhouse,2,2.5,6434,16933,1975,49,335810.27,02/04/2022,1473,52.19,282178.6,2024,3380.15,Steven Robinson,True,LA-OR-50038,Mid-age
P-100221,10221,"2979 Pine Rd, Apt 7A, Fort Lauderdale, FL 46780",2979 Pine Rd,Apt 7A,Fort Lauderdale,FL,46780,Broward,43.755912,-144.819855,Condo,2,3.0,5733,6985,2013,11,178811.97,27/01/2026,77,31.19,188624.49,2024,1579.6,Donna Nguyen,True,FL-BR-87337,New
P-100222,10222,"4369 Riverside Dr, Apt 5D, Indianapolis, IN 95709",4369 Riverside Dr,Apt 5D,Indianapolis,IN,95709,Marion,41.542727,-125.173779,Condo,7,3.0,1696,9309,1984,40,518121.35,31/10/2021,1626,305.5,471055.03,2022,7514.34,Michelle Baker,True,IN-MA-77388,Mid-age
P-100225,10225,"7998 Main St, Apt 24A, Fairfax, VA 75776",7998 Main St,Apt 24A,Fairfax,VA,75776,Fairfax,44.373907,-118.728813,Condo,1,5.0,5871,10471,1947,77,480288.49,08/07/2024,645,81.81,436422.25,2024,7769.83,Brian Anderson,True,VA-FA-53283,Old
P-100227,10227,"6742 Oak Ave, Apt 6C, Charleston, SC 96736",6742 Oak Ave,Apt 6C,Charleston,SC,96736,Charleston,42.764538,-74.588913,Condo,4,4.5,4545,7339,1948,76,767683.59,18/07/2019,2462,168.91,647014.2,2024,11546.25,Susan Flores,False,SC-CH-44671,Old
P-100229,10229,"2025 Pine Rd, Apt 12E, Boston, MA 73208",2025 Pine Rd,Apt 12E,Boston,MA,73208,Suffolk,38.473904,-78.527326,Condo,7,1.0,6158,16795,1975,49,2042234.9,16/02/2022,1518,331.64,2169766.94,2024,31153.08,Joseph Walker,False,MA-SU-59969,Mid-age
P-100231,10231,"6798 Meadow Ln, Apt 18D, Las Vegas, NV 23970",6798 Meadow Ln,Apt 18D,Las Vegas,NV,23970,Clark,25.101632,-100.312894,Condo,3,5.0,4069,13320,1966,58,597266.93,26/08/2018,2788,146.78,549029.41,2022,7114.73,Emily Walker,True,NV-CL-83281,Old
P-100236,10236,"4377 Washington Ave, Apt 25C, Austin, TX 63363",4377 Washington Ave,Apt 25C,Austin,TX,63363,Travis,34.41531,-108.399128,Condo,3,3.5,1558,9967,1952,72,803368.18,01/03/2017,3331,515.64,833909.65,2023,16678.19,Anthony Torres,True,TX-TR-41886,Old
P-100237,10237,"7648 Oak Ave, Apt 3E, Kansas City, MO 73172",7648 Oak Ave,Apt 3E,Kansas City,MO,73172,Jackson,24.08111,-151.122779,Condo,6,2.5,3186,9943,1965,59,522873.29,05/03/2026,40,164.12,528230.42,2023,5799.49,Jennifer Sanchez,False,MO-JA-54825,Old
P-100240,10240,"2201 Cedar Ln, Apt 7D, Lexington, KY 78909",2201 Cedar Ln,Apt 7D,Lexington,KY,78909,Fayette,42.180653,-115.386153,Condo,1,5.0,3444,9894,2007,17,725205.09,26/02/2021,1873,210.57,792614.47,2024,11269.76,Daniel Hall,True,KY-FA-98356,New
P-100241,10241,"1750 Ridgewood Rd, Apt 9D, New Orleans, LA 57395",1750 Ridgewood Rd,Apt 9D,New Orleans,LA,57395,Orleans,37.23862,-134.406033,Condo,3,2.5,2806,10528,1998,26,387615.24,21/03/2024,754,138.14,368091.45,2022,4795.91,Ronald White,True,LA-OR-62506,Mid-age
P-100242,10242,"9461 Lake Dr, Apt 29E, Decatur, GA 85483",9461 Lake Dr,Apt 29E,Decatur,GA,85483,DeKalb,39.179316,-86.165412,Condo,7,2.5,5149,12230,1968,56,272929.31,24/04/2017,3277,53.01,296877.32,2022,4060.05,James Lopez,True,GA-DE-27625,Old
P-100248,10248,"7754 Jackson Dr, Apt 15C, Rockville, MD 81898",7754 Jackson Dr,Apt 15C,Rockville,MD,81898,Montgomery,32.788391,-72.649823,Condo,2,4.5,5769,16186,1992,32,821972.85,09/02/2019,2621,142.48,815280.74,2023,15414.58,Steven Wright,True,MD-MO-21738,Mid-age
P-100258,10258,"2727 Elm St, Apt 24A, Indianapolis, IN 79617",2727 Elm St,Apt 24A,Indianapolis,IN,79617,Marion,25.108175,-131.276478,Condo,5,3.5,4319,4330,2019,5,617660.33,12/01/2022,1553,143.01,630073.65,2022,9726.33,Margaret Roberts,False,IN-MA-52034,New
P-100261,10261,"1094 Meadow Ln, Apt 18D, St. Louis, MO 83140",1094 Meadow Ln,Apt 18D,St. Louis,MO,83140,St. Louis,40.702152,-79.532537,Townhouse,7,1.0,5653,10008,1987,37,151709.46,29/06/2025,289,26.84,159346.05,2022,3080.99,Kimberly Miller,True,MO-ST-40279,Mid-age
P-100262,10262,"3264 Monroe Blvd, Apt 22B, Lawrenceville, GA 84714",3264 Monroe Blvd,Apt 22B,Lawrenceville,GA,84714,Gwinnett,37.571114,-141.435883,Condo,4,1.5,5831,15277,1965,59,646104.2,28/05/2018,2878,110.81,645828.12,2022,6459.39,Susan Scott,True,GA-GW-54238,Old
P-100263,10263,"9929 Harbor View Blvd, Apt 12D, Salt Lake City, UT 56179",9929 Harbor View Blvd,Apt 12D,Salt Lake City,UT,56179,Salt Lake,44.915852,-109.142923,Townhouse,7,3.5,3977,14352,1975,49,764400.88,28/08/2022,1325,192.21,751042.22,2024,10925.8,Anthony Roberts,True,UT-SA-43303,Mid-age
P-100264,10264,"6605 Main St, Apt 5A, Eugene, OR 14543",6605 Main St,Apt 5A,Eugene,OR,14543,Lane,47.048346,-105.168634,Condo,2,3.0,653,5573,1948,76,557787.38,02/10/2022,1290,854.19,449861.33,2024,8038.14,Emily Allen,True,OR-LA-84922,Old
P-100265,10265,"7642 Hillcrest Ave, Apt 27A, Fort Worth, TX 30461",7642 Hillcrest Ave,Apt 27A,Fort Worth,TX,30461,Tarrant,24.667817,-125.063788,Townhouse,2,2.5,2699,7619,1931,93,564979.98,26/11/2019,2331,209.33,607559.44,2024,12151.19,Daniel Walker,True,TX-TA-85527,Old
P-100266,10266,"5021 Maple Dr, Apt 2C, Oklahoma City, OK 85534",5021 Maple Dr,Apt 2C,Oklahoma City,OK,85534,Oklahoma,31.110972,-89.129394,Townhouse,3,4.0,4012,5986,2018,6,296839.78,18/12/2018,2674,73.99,313119.5,2022,4886.74,Kevin Harris,True,OK-OK-78731,New
P-100270,10270,"2489 Harbor View Blvd, Apt 1C, Omaha, NE 15882",2489 Harbor View Blvd,Apt 1C,Omaha,NE,15882,Douglas,45.49165,-136.686405,Townhouse,2,1.5,1520,2413,1951,73,860173.91,17/08/2024,605,565.9,912322.56,2023,7448.93,George Davis,True,NE-DO-71759,Old
P-100271,10271,"8914 Jefferson St, Apt 9A, Naperville, IL 36712",8914 Jefferson St,Apt 9A,Naperville,IL,36712,DuPage,35.480242,-91.719102,Condo,4,2.0,6294,17742,2005,19,134343.04,30/09/2019,2388,21.34,143990.49,2024,3023.8,William Brown,True,IL-DU-90997,New
P-100272,10272,"236 Elm St, Apt 3B, St. Louis, MO 60940",236 Elm St,Apt 3B,St. Louis,MO,60940,St. Louis,38.49988,-99.320598,Townhouse,7,1.5,756,5548,2003,21,421488.12,05/01/2022,1560,557.52,401493.61,2024,3691.83,Daniel Young,False,MO-ST-79672,Mid-age
P-100273,10273,"8302 Lakeshore Dr, Apt 9A, Chicago, IL 83490",8302 Lakeshore Dr,Apt 9A,Chicago,IL,83490,Cook,45.548274,-155.130504,Condo,5,3.0,3332,11359,1970,54,700624.76,28/01/2026,76,210.27,633388.58,2023,13301.16,Lisa Thomas,False,IL-CO-75700,Old
P-100274,10274,"4321 Forest Glen Rd, Apt 19B, Albuquerque, NM 13862",4321 Forest Glen Rd,Apt 19B,Albuquerque,NM,13862,Bernalillo,46.019623,-74.426872,Condo,2,3.5,3818,14581,1937,87,188480.11,30/12/2021,1566,49.37,180227.57,2024,2766.38,Kevin Baker,True,NM-BE-41504,Old
P-100277,10277,"3126 Oak Ave, Apt 6D, Jacksonville, FL 90213",3126 Oak Ave,Apt 6D,Jacksonville,FL,90213,Duval,37.349082,-104.312408,Townhouse,2,2.5,2491,13752,1923,101,400223.84,26/07/2018,2819,160.67,413810.59,2022,5804.89,Joshua Walker,False,FL-DU-59015,Old
P-100279,10279,"7105 Creekside Dr, Apt 24A, Charlotte, NC 15482",7105 Creekside Dr,Apt 24A,Charlotte,NC,15482,Mecklenburg,37.110144,-85.283419,Townhouse,4,5.0,4902,15410,2010,14,733797.49,11/06/2020,2133,149.69,611102.8,2023,10953.48,Robert Thomas,True,NC-ME-61853,New
P-100280,10280,"6447 Cedar Ln, Apt 4B, Fort Wayne, IN 34884",6447 Cedar Ln,Apt 4B,Fort Wayne,IN,34884,Allen,28.716253,-122.370529,Condo,7,3.0,4379,7106,1974,50,349647.39,02/09/2025,224,79.85,352089.99,2022,4775.38,Carol Lewis,True,IN-AL-75622,Old
P-100282,10282,"6046 Pine Rd, Apt 25A, Honolulu, HI 78657",6046 Pine Rd,Apt 25A,Honolulu,HI,78657,Honolulu,39.742897,-93.761976,Condo,5,2.0,3702,12718,1968,56,583913.55,14/05/2024,700,157.73,626933.87,2024,11570.48,Barbara Hernandez,False,HI-HO-33444,Old
P-100284,10284,"7534 Willow Way, Apt 22E, Rockville, MD 67917",7534 Willow Way,Apt 22E,Rockville,MD,67917,Montgomery,23.10423,-104.791117,Condo,5,3.0,5677,15976,1991,33,1284145.67,15/12/2023,851,226.2,1046162.2,2022,9060.57,Matthew Williams,True,MD-MO-14250,Mid-age
P-100290,10290,"2324 Riverside Dr, Apt 3B, Fort Worth, TX 30366",2324 Riverside Dr,Apt 3B,Fort Worth,TX,30366,Tarrant,37.620813,-79.390926,Condo,3,4.5,3991,4908,1986,38,353488.12,25/02/2018,2970,88.57,354710.94,2024,7094.22,Jessica Torres,False,TX-TA-56346,Mid-age
P-100293,10293,"2274 Jefferson St, Apt 1E, Charleston, SC 14791",2274 Jefferson St,Apt 1E,Charleston,SC,14791,Charleston,33.173263,-94.910067,Condo,1,1.0,3147,3868,2007,17,781536.74,03/07/2016,3572,248.34,645645.29,2023,12054.35,Michael King,False,SC-CH-50957,New
P-100296,10296,"7404 Hillcrest Ave, Apt 8B, Albuquerque, NM 50952",7404 Hillcrest Ave,Apt 8B,Albuquerque,NM,50952,Bernalillo,29.806801,-139.761199,Condo,1,4.5,5251,7410,1931,93,754023.79,13/06/2018,2862,143.6,709146.38,2023,8314.53,Carol Rivera,False,NM-BE-71675,Old
P-100297,10297,"4327 Meadow Ln, Apt 5E, Manhattan, NY 61390",4327 Meadow Ln,Apt 5E,Manhattan,NY,61390,New York,25.858856,-77.197995,Townhouse,7,3.5,4313,12300,1923,101,649363.86,06/01/2025,463,150.56,587954.98,2023,12935.01,Charles Roberts,True,NY-NE-85324,Old
P-100298,10298,"6746 River Blvd, Apt 14D, Fort Lauderdale, FL 52712",6746 River Blvd,Apt 14D,Fort Lauderdale,FL,52712,Broward,35.737971,-150.829613,Condo,5,4.5,3883,13558,1972,52,306088.73,20/07/2023,999,78.83,295187.29,2023,3721.07,Nancy Wilson,False,FL-BR-87459,Old
P-100299,10299,"5706 Monroe Blvd, Apt 27E, Louisville, KY 32686",5706 Monroe Blvd,Apt 27E,Louisville,KY,32686,Jefferson,38.559225,-150.223187,Townhouse,7,4.5,1536,11238,1996,28,481068.58,22/01/2020,2274,313.2,398948.33,2023,4035.0,Betty Jones,True,KY-JE-99850,Mid-age
P-100301,10301,"5089 Summit Rd, Apt 8D, Louisville, KY 55123",5089 Summit Rd,Apt 8D,Louisville,KY,55123,Jefferson,47.242665,-106.302753,Townhouse,5,4.0,1644,6463,1927,97,407993.86,16/02/2020,2249,248.17,444864.21,2022,7313.68,Matthew Davis,False,KY-JE-14087,Old
P-100302,10302,"6559 Ridgewood Rd, Apt 21A, Baton Rouge, LA 60173",6559 Ridgewood Rd,Apt 21A,Baton Rouge,LA,60173,East Baton Rouge,31.759865,-119.138466,Condo,6,2.0,4490,6768,1944,80,553228.83,28/10/2016,3455,123.21,596018.1,2023,5871.5,Brian Rodriguez,True,LA-EA-19403,Old
P-100304,10304,"221 Orchard Ln, Apt 28C, Tulsa, OK 41031",221 Orchard Ln,Apt 28C,Tulsa,OK,41031,Tulsa,39.871445,-133.575211,Condo,5,3.5,874,1494,1992,32,496949.14,24/02/2022,1510,568.59,414430.39,2023,8098.32,Jennifer Martinez,False,OK-TU-78997,Mid-age
P-100306,10306,"5531 Willow Way, Apt 10E, Lexington, KY 56257",5531 Willow Way,Apt 10E,Lexington,KY,56257,Fayette,46.455405,-87.55458,Condo,2,1.0,6293,16084,2015,9,357175.26,24/06/2017,3216,56.76,346142.79,2022,5383.07,Donna Hernandez,True,KY-FA-96025,New
P-100307,10307,"4799 Orchard Ln, Apt 12B, San Antonio, TX 20814",4799 Orchard Ln,Apt 12B,San Antonio,TX,20814,Bexar,24.360765,-150.312983,Condo,3,2.0,5644,10247,1955,69,789129.54,14/02/2026,59,139.82,806828.73,2024,16136.57,Donna Mitchell,True,TX-BE-68543,Old
P-100308,10308,"3969 Orchard Ln, Apt 24C, Durham, NC 33699",3969 Orchard Ln,Apt 24C,Durham,NC,33699,Durham,42.183358,-82.004745,Townhouse,1,2.0,5478,8003,1983,41,707153.81,26/08/2021,1692,129.09,729153.6,2022,11613.96,Timothy Green,True,NC-DU-85727,Mid-age
P-100311,10311,"3293 Valley View Dr, Apt 20A, Baton Rouge, LA 98829",3293 Valley View Dr,Apt 20A,Baton Rouge,LA,98829,East Baton Rouge,39.292376,-141.347251,Condo,1,1.0,1156,1351,1972,52,196205.03,12/02/2025,426,169.73,197313.56,2023,2098.03,Charles Taylor,True,LA-EA-13106,Old
P-100315,10315,"114 Maple Dr, Apt 23D, Billings, MT 97111",114 Maple Dr,Apt 23D,Billings,MT,97111,Yellowstone,31.347821,-143.81015,Townhouse,4,1.0,4822,16415,2018,6,502729.97,23/05/2021,1787,104.26,463101.69,2024,8044.65,John Wright,True,MT-YE-60387,New
P-100317,10317,"5986 Orchard Ln, Apt 1A, Fort Lauderdale, FL 21123",5986 Orchard Ln,Apt 1A,Fort Lauderdale,FL,21123,Broward,44.458175,-118.895414,Condo,2,1.0,2181,2596,2012,12,897179.18,11/08/2023,977,411.36,849422.12,2022,14875.82,Carol Martin,True,FL-BR-68891,New
P-100318,10318,"1018 Valley View Dr, Apt 5A, Nashville, TN 15611",1018 Valley View Dr,Apt 5A,Nashville,TN,15611,Davidson,31.745958,-138.583999,Condo,4,5.0,1820,11312,1949,75,841356.33,13/11/2025,152,462.28,858720.17,2023,13607.26,Steven Flores,True,TN-DA-95037,Old
P-100319,10319,"918 Clearwater Ct, Apt 22E, Atlanta, GA 22752",918 Clearwater Ct,Apt 22E,Atlanta,GA,22752,Fulton,33.088892,-142.150023,Townhouse,1,1.5,1535,9680,1996,28,743356.67,23/10/2023,904,484.27,608759.33,2022,7983.6,Deborah Baker,True,GA-FU-25833,Mid-age
P-100320,10320,"2350 Ridgewood Rd, Apt 20D, Provo, UT 37948",2350 Ridgewood Rd,Apt 20D,Provo,UT,37948,Utah,41.252039,-105.401583,Townhouse,1,1.5,2843,5157,2016,8,443820.37,22/06/2018,2853,156.11,404310.68,2022,5362.75,Donna Williams,True,UT-UT-92863,New
P-100327,10327,"8648 Orchard Ln, Apt 2D, Philadelphia, PA 38369",8648 Orchard Ln,Apt 2D,Philadelphia,PA,38369,Philadelphia,36.676893,-84.181955,Condo,1,4.0,2620,6680,1961,63,458714.0,16/10/2023,911,175.08,489698.66,2024,9478.13,Kenneth Smith,True,PA-PH-15796,Old
P-100329,10329,"7960 Clearwater Ct, Apt 13C, Dallas, TX 31207",7960 Clearwater Ct,Apt 13C,Dallas,TX,31207,Dallas,39.637569,-82.360776,Townhouse,1,4.5,4399,6670,2010,14,436181.09,04/06/2017,3236,99.15,462991.2,2024,9259.82,Kevin Smith,False,TX-DA-19266,New
P-100330,10330,"635 Heritage Ln, Apt 13C, Columbia, SC 65823",635 Heritage Ln,Apt 13C,Columbia,SC,65823,Richland,40.951532,-96.269216,Townhouse,5,2.5,6208,7534,1999,25,807060.85,12/01/2018,3014,130.0,871361.79,2024,16855.51,Amanda White,False,SC-RI-24544,Mid-age
P-100334,10334,"5780 Willow Way, Apt 27E, Rockville, MD 68177",5780 Willow Way,Apt 27E,Rockville,MD,68177,Montgomery,40.549295,-155.13104,Condo,1,1.0,2503,11016,2002,22,703052.84,17/10/2019,2371,280.88,634742.64,2024,11071.11,Dorothy Nguyen,False,MD-MO-79489,Mid-age
P-100338,10338,"4848 Sunset Blvd, Apt 2E, Rockville, MD 84086",4848 Sunset Blvd,Apt 2E,Rockville,MD,84086,Montgomery,40.30641,-76.760587,Townhouse,6,1.5,4523,5179,1937,87,1113610.0,21/12/2024,479,246.21,993813.03,2023,15314.92,Joseph Lewis,True,MD-MO-52777,Old
P-100341,10341,"9720 Pine Rd, Apt 7B, Brooklyn, NY 28827",9720 Pine Rd,Apt 7B,Brooklyn,NY,28827,Kings,26.50627,-115.708658,Condo,3,1.5,5438,11594,1931,93,470187.55,13/02/2019,2617,86.46,505133.37,2023,11112.93,Ashley Rivera,True,NY-KI-27947,Old
P-100342,10342,"4842 Orchard Ln, Apt 29C, Cincinnati, OH 15535",4842 Orchard Ln,Apt 29C,Cincinnati,OH,15535,Hamilton,42.804179,-130.726618,Townhouse,3,4.5,5181,12774,1948,76,140935.21,03/04/2026,11,27.2,119260.39,2023,2322.28,Kevin Walker,True,OH-HA-97282,Old
P-100345,10345,"1648 Broadway, Apt 4B, Decatur, GA 81265",1648 Broadway,Apt 4B,Decatur,GA,81265,DeKalb,29.549082,-129.489692,Condo,3,3.5,1385,10140,1994,30,394270.91,02/09/2024,589,284.67,316942.28,2024,3605.86,Stephanie Young,True,GA-DE-31368,Mid-age
P-100346,10346,"8347 Madison Ave, Apt 23C, Queens, NY 34696",8347 Madison Ave,Apt 23C,Queens,NY,34696,Queens,42.070329,-108.396996,Condo,7,5.0,6437,15466,2009,15,2756735.57,02/01/2025,467,428.26,2550542.44,2022,56111.93,David Johnson,True,NY-QU-50838,New
P-100348,10348,"796 Lincoln Rd, Apt 6C, Saint Paul, MN 24131",796 Lincoln Rd,Apt 6C,Saint Paul,MN,24131,Ramsey,21.869007,-99.598371,Townhouse,1,4.5,1574,5719,1925,99,171672.94,18/10/2018,2735,109.07,137867.4,2022,2397.3,Joshua Wilson,True,MN-RA-36217,Old
P-100351,10351,"7733 Park Way, Apt 28D, Tampa, FL 78121",7733 Park Way,Apt 28D,Tampa,FL,78121,Hillsborough,24.601678,-90.68219,Condo,5,1.0,1273,6648,1983,41,210263.63,07/02/2023,1162,165.17,197034.63,2024,2313.99,Donald Anderson,True,FL-HI-48088,Mid-age
P-100358,10358,"561 Maple Dr, Apt 3A, San Jose, CA 26803",561 Maple Dr,Apt 3A,San Jose,CA,26803,Santa Clara,43.178755,-126.647719,Townhouse,1,3.5,3717,5311,1974,50,1502686.23,11/04/2022,1464,404.27,1387849.27,2022,22115.21,Sarah Thomas,False,CA-SA-87664,Old
P-100360,10360,"8101 River Blvd, Apt 10E, Miami, FL 98488",8101 River Blvd,Apt 10E,Miami,FL,98488,Miami-Dade,26.45657,-113.784368,Townhouse,2,3.0,3576,10719,1945,79,507622.33,12/10/2016,3471,141.95,554441.44,2022,10026.83,Andrew Wilson,True,FL-MI-16230,Old
P-100362,10362,"6888 Creekside Dr, Apt 18E, Chicago, IL 42933",6888 Creekside Dr,Apt 18E,Chicago,IL,42933,Cook,37.561543,-117.569111,Condo,2,1.0,5743,17266,1986,38,792913.65,25/10/2019,2363,138.07,753078.53,2024,15814.65,Deborah Robinson,True,IL-CO-93614,Mid-age
P-100363,10363,"9375 Cedar Ln, Apt 8D, Saint Paul, MN 78454",9375 Cedar Ln,Apt 8D,Saint Paul,MN,78454,Ramsey,26.317173,-116.763658,Condo,2,3.0,4166,10887,1960,64,790945.04,24/07/2025,264,189.86,783176.57,2023,8774.1,Charles Adams,True,MN-RA-88804,Old
P-100368,10368,"670 Cedar Ln, Apt 10B, Boise, ID 98027",670 Cedar Ln,Apt 10B,Boise,ID,98027,Ada,27.351409,-108.912672,Condo,6,3.5,6213,8212,1988,36,796223.29,31/08/2016,3513,128.15,742654.06,2022,14049.14,Betty Taylor,True,ID-AD-40862,Mid-age
P-100373,10373,"8196 Park Way, Apt 1C, Kansas City, MO 39423",8196 Park Way,Apt 1C,Kansas City,MO,39423,Jackson,39.909438,-140.422658,Condo,3,4.5,3729,5862,1975,49,787943.43,22/07/2019,2458,211.3,681311.03,2023,11391.86,Richard Clark,True,MO-JA-29129,Mid-age
P-100375,10375,"9225 Cedar Ln, Apt 6E, Miami, FL 16830",9225 Cedar Ln,Apt 6E,Miami,FL,16830,Miami-Dade,29.820857,-136.568795,Townhouse,5,1.0,643,4798,1984,40,603333.14,21/11/2022,1240,938.31,659598.28,2024,8212.54,Emily Williams,True,FL-MI-44116,Mid-age
P-100378,10378,"2000 Orchard Ln, Apt 19E, Saint Paul, MN 15346",2000 Orchard Ln,Apt 19E,Saint Paul,MN,15346,Ramsey,32.700272,-70.972783,Condo,4,4.5,4638,6481,2012,12,796165.85,23/11/2024,507,171.66,720435.58,2022,13269.04,Susan Hernandez,False,MN-RA-45755,New
P-100380,10380,"1428 Lakeshore Dr, Apt 26C, San Antonio, TX 96447",1428 Lakeshore Dr,Apt 26C,San Antonio,TX,96447,Bexar,33.71616,-102.332964,Condo,5,1.0,3298,4016,2003,21,605444.59,15/03/2021,1856,183.58,543371.17,2024,10867.42,Kenneth Rodriguez,True,TX-BE-16380,Mid-age
P-100383,10383,"3153 Summit Rd, Apt 10B, Wichita, KS 92665",3153 Summit Rd,Apt 10B,Wichita,KS,92665,Sedgwick,32.289453,-153.481886,Townhouse,4,2.5,5905,17148,2011,13,240954.37,23/09/2020,2029,40.81,230878.53,2024,3300.67,Charles Robinson,True,KS-SE-72601,New
P-100384,10384,"5021 Monroe Blvd, Apt 25E, Jacksonville, FL 78562",5021 Monroe Blvd,Apt 25E,Jacksonville,FL,78562,Duval,32.334893,-107.537395,Condo,1,1.0,4805,6568,1985,39,451432.55,22/03/2025,388,93.95,424074.36,2024,6285.52,Thomas Thompson,True,FL-DU-20717,Mid-age
P-100387,10387,"6010 Creekside Dr, Apt 25D, Aurora, CO 49669",6010 Creekside Dr,Apt 25D,Aurora,CO,49669,Arapahoe,23.322331,-145.245087,Condo,1,1.0,6301,9384,1923,101,551075.38,04/01/2019,2657,87.46,464857.57,2022,6149.82,Kevin Wright,True,CO-AR-49441,Old
P-100389,10389,"8221 Heritage Ln, Apt 16E, Pittsburgh, PA 14851",8221 Heritage Ln,Apt 16E,Pittsburgh,PA,14851,Allegheny,33.918658,-114.709216,Townhouse,6,4.5,2499,14201,1927,97,532080.87,20/07/2021,1729,212.92,517672.66,2024,4535.91,Carol Clark,False,PA-AL-25327,Old
P-100390,10390,"5781 Harbor View Blvd, Apt 24D, Boise, ID 67177",5781 Harbor View Blvd,Apt 24D,Boise,ID,67177,Ada,21.551384,-131.943062,Condo,4,3.5,4189,7991,1984,40,291367.83,08/08/2018,2806,69.56,262739.75,2024,4792.75,Melissa Nelson,True,ID-AD-48455,Mid-age
P-100392,10392,"397 Hillcrest Ave, Apt 9B, San Diego, CA 44184",397 Hillcrest Ave,Apt 9B,San Diego,CA,44184,San Diego,30.461663,-143.201325,Condo,1,1.5,3366,10421,1934,90,2333566.91,05/12/2024,495,693.28,2260279.92,2023,25075.24,Nancy Thompson,False,CA-SA-83010,Old
P-100395,10395,"6008 Monroe Blvd, Apt 3A, Pittsburgh, PA 29871",6008 Monroe Blvd,Apt 3A,Pittsburgh,PA,29871,Allegheny,40.959966,-110.920426,Condo,2,4.0,3986,10692,1978,46,862435.62,29/06/2020,2115,216.37,895537.8,2023,17306.16,Donald Martinez,False,PA-AL-77809,Mid-age
P-100397,10397,"5239 Hillcrest Ave, Apt 29C, Aurora, CO 11035",5239 Hillcrest Ave,Apt 29C,Aurora,CO,11035,Arapahoe,42.915594,-78.681859,Townhouse,2,4.0,4255,14804,1946,78,1365095.71,13/04/2019,2558,320.82,1414925.08,2024,18826.61,Matthew Adams,True,CO-AR-35859,Old
P-100399,10399,"7026 Birch St, Apt 19E, Aurora, CO 24475",7026 Birch St,Apt 19E,Aurora,CO,24475,Arapahoe,40.397633,-83.782241,Condo,6,5.0,3503,5531,1926,98,1207871.93,19/11/2024,511,344.81,1128902.55,2024,19013.32,Ashley Perez,False,CO-AR-86230,Old
P-100400,10400,"3931 Hillcrest Ave, Apt 23D, Oklahoma City, OK 49216",3931 Hillcrest Ave,Apt 23D,Oklahoma City,OK,49216,Oklahoma,28.540191,-88.723334,Townhouse,6,2.0,6451,12638,1986,38,695259.61,06/02/2025,432,107.78,624589.31,2024,6439.93,Stephanie White,True,OK-OK-29209,Mid-age
P-100401,10401,"1442 Pine Rd, Apt 23D, Philadelphia, PA 18151",1442 Pine Rd,Apt 23D,Philadelphia,PA,18151,Philadelphia,32.259498,-145.684491,Condo,4,1.5,3625,14714,1987,37,434147.89,06/01/2020,2290,119.76,414907.97,2023,7660.93,Donna Young,False,PA-PH-67682,Mid-age
P-100404,10404,"2104 Hillcrest Ave, Apt 5C, Austin, TX 18855",2104 Hillcrest Ave,Apt 5C,Austin,TX,18855,Travis,44.066303,-120.670962,Townhouse,3,4.5,3367,9548,1980,44,770878.79,07/12/2016,3415,228.95,756781.66,2022,15135.63,Ashley Carter,True,TX-TR-68861,Mid-age
P-100409,10409,"3418 Monroe Blvd, Apt 22A, San Diego, CA 88250",3418 Monroe Blvd,Apt 22A,San Diego,CA,88250,San Diego,36.529771,-114.110789,Condo,4,1.5,2806,3799,1960,64,1867711.78,19/09/2021,1668,665.61,1530846.55,2022,19732.5,Joseph Johnson,True,CA-SA-86830,Old
P-100410,10410,"9188 Lake Dr, Apt 10B, Charlotte, NC 49926",9188 Lake Dr,Apt 10B,Charlotte,NC,49926,Mecklenburg,36.058509,-118.199544,Condo,2,2.0,3658,12512,1941,83,729978.46,03/04/2020,2202,199.56,792598.78,2024,10637.39,James Robinson,False,NC-ME-91360,Old
P-100412,10412,"4678 Summit Rd, Apt 21A, Fort Wayne, IN 37636",4678 Summit Rd,Apt 21A,Fort Wayne,IN,37636,Allen,37.176801,-73.704706,Townhouse,6,3.5,5803,10085,2016,8,672048.19,22/03/2023,1119,115.81,587221.25,2023,7105.12,Ashley Hill,True,IN-AL-27527,New
P-100417,10417,"7097 Cedar Ln, Apt 13B, Austin, TX 52336",7097 Cedar Ln,Apt 13B,Austin,TX,52336,Travis,32.462527,-70.425737,Condo,1,5.0,4422,12541,1966,58,523460.39,17/10/2025,179,118.38,557558.98,2022,11151.18,Mark Wright,True,TX-TR-10676,Old
P-100421,10421,"9923 Main St, Apt 19B, Tucson, AZ 69429",9923 Main St,Apt 19B,Tucson,AZ,69429,Pima,31.173881,-87.820673,Townhouse,5,1.5,3382,14046,2006,18,730684.73,11/03/2021,1860,216.05,697923.65,2024,7195.44,Michael Smith,True,AZ-PI-18853,New
P-100424,10424,"3202 Riverside Dr, Apt 15E, Nashville, TN 71263",3202 Riverside Dr,Apt 15E,Nashville,TN,71263,Davidson,36.893701,-128.190347,Townhouse,5,3.5,5647,10556,1973,51,376322.86,08/02/2025,430,66.64,352347.57,2022,4915.66,James Green,True,TN-DA-40182,Old
P-100426,10426,"586 Lincoln Rd, Apt 26A, Los Angeles, CA 35929",586 Lincoln Rd,Apt 26A,Los Angeles,CA,35929,Los Angeles,28.528673,-137.951781,Condo,6,2.0,3383,12468,1951,73,994551.36,15/01/2026,89,293.99,848176.5,2023,16054.1,Mary Baker,True,CA-LO-95835,Old
P-100428,10428,"4106 Maple Dr, Apt 26E, Honolulu, HI 90744",4106 Maple Dr,Apt 26E,Honolulu,HI,90744,Honolulu,36.564136,-82.664117,Condo,7,2.0,3284,7333,1926,98,2369850.38,21/02/2023,1148,721.64,2516438.54,2024,49374.06,Dorothy Wilson,False,HI-HO-71691,Old
P-100429,10429,"2843 Birch St, Apt 21E, Oakland, CA 60871",2843 Birch St,Apt 21E,Oakland,CA,60871,Alameda,40.909663,-100.878774,Condo,3,4.5,4850,12456,1942,82,1431560.56,02/02/2022,1532,295.17,1370923.52,2023,22740.6,Dorothy Walker,True,CA-AL-62552,Old
P-100430,10430,"699 Jefferson St, Apt 12B, Billings, MT 38773",699 Jefferson St,Apt 12B,Billings,MT,38773,Yellowstone,44.714443,-117.669034,Condo,4,2.5,3106,10069,1968,56,565668.9,01/11/2016,3451,182.12,516021.39,2024,4653.02,Ronald Garcia,True,MT-YE-78002,Old
P-100433,10433,"8998 Adams St, Apt 16B, Brooklyn, NY 11118",8998 Adams St,Apt 16B,Brooklyn,NY,11118,Kings,41.407016,-132.479461,Townhouse,7,4.0,3923,13424,2016,8,2448690.95,27/12/2020,1934,624.19,2439452.8,2022,53667.96,Joseph Anderson,False,NY-KI-37508,New
P-100434,10434,"9717 Lakeshore Dr, Apt 27C, Charleston, SC 70476",9717 Lakeshore Dr,Apt 27C,Charleston,SC,70476,Charleston,30.027479,-149.528801,Condo,4,4.0,2316,9503,1977,47,785296.42,11/12/2025,124,339.07,716512.35,2024,13244.73,Lisa Mitchell,True,SC-CH-96356,Mid-age
P-100435,10435,"3794 Willow Way, Apt 13B, Nashville, TN 65799",3794 Willow Way,Apt 13B,Nashville,TN,65799,Davidson,39.172714,-121.906922,Condo,3,3.5,5408,5788,1992,32,732579.09,21/09/2024,570,135.46,619840.57,2023,9184.98,Joshua Hill,True,TN-DA-61234,Mid-age
P-100444,10444,"8666 River Blvd, Apt 22A, Honolulu, HI 61199",8666 River Blvd,Apt 22A,Honolulu,HI,61199,Honolulu,39.294188,-118.373158,Townhouse,1,1.0,3691,6996,1951,73,1592666.35,10/08/2023,978,431.5,1369686.22,2022,17888.37,James Perez,False,HI-HO-99123,Old
P-100445,10445,"1682 Broadway, Apt 1D, Phoenix, AZ 31895",1682 Broadway,Apt 1D,Phoenix,AZ,31895,Maricopa,22.166332,-112.412491,Townhouse,3,5.0,5734,8839,1999,25,281553.07,17/03/2020,2219,49.1,258611.89,2023,2443.79,Jessica Miller,True,AZ-MA-32756,Mid-age
P-100446,10446,"5281 Main St, Apt 20C, Billings, MT 61011",5281 Main St,Apt 20C,Billings,MT,61011,Yellowstone,26.63835,-137.851631,Condo,6,3.5,959,2062,1947,77,440655.53,04/09/2017,3144,459.49,431692.92,2022,7144.68,Kenneth Hernandez,True,MT-YE-22418,Old
P-100447,10447,"6466 Lake Dr, Apt 8A, Albuquerque, NM 53522",6466 Lake Dr,Apt 8A,Albuquerque,NM,53522,Bernalillo,25.646273,-90.730683,Townhouse,7,4.5,1153,6643,1922,102,594655.99,21/09/2019,2397,515.75,555809.18,2024,8719.04,Joseph Allen,True,NM-BE-11742,Old
P-100448,10448,"2132 Clearwater Ct, Apt 24C, Wichita, KS 40984",2132 Clearwater Ct,Apt 24C,Wichita,KS,40984,Sedgwick,40.554702,-91.11962,Townhouse,1,1.0,1726,7862,1983,41,351359.49,31/07/2024,622,203.57,320694.37,2024,2711.43,Timothy Hill,False,KS-SE-68160,Mid-age
P-100451,10451,"5203 Broadway, Apt 15D, St. Louis, MO 35891",5203 Broadway,Apt 15D,St. Louis,MO,35891,St. Louis,27.490511,-141.650111,Condo,3,3.0,5322,12666,2001,23,277092.78,11/08/2016,3533,52.07,286621.08,2022,5563.93,Margaret Sanchez,True,MO-ST-71697,Mid-age
P-100460,10460,"3558 Main St, Apt 2C, Miami, FL 59239",3558 Main St,Apt 2C,Miami,FL,59239,Miami-Dade,36.979099,-71.139975,Condo,4,4.5,3360,13262,1974,50,382509.16,21/08/2018,2793,113.84,408154.74,2023,7266.04,Margaret Nelson,True,FL-MI-90059,Old
P-100462,10462,"5378 Oak Ave, Apt 24D, Austin, TX 93070",5378 Oak Ave,Apt 24D,Austin,TX,93070,Travis,30.545449,-153.019377,Townhouse,6,4.5,2513,12454,1982,42,432128.85,31/05/2019,2510,171.96,448631.04,2023,8972.62,Steven Nelson,False,TX-TR-23166,Mid-age
P-100463,10463,"3296 Sunset Blvd, Apt 8B, Denver, CO 78164",3296 Sunset Blvd,Apt 8B,Denver,CO,78164,Denver,44.220201,-88.717011,Condo,1,2.0,4679,6105,1958,66,1298824.93,17/02/2020,2248,277.59,1423727.58,2023,14260.96,Donald Davis,True,CO-DE-80866,Old
P-100465,10465,"5552 Madison Ave, Apt 11E, Sacramento, CA 85493",5552 Madison Ave,Apt 11E,Sacramento,CA,85493,Sacramento,41.307941,-104.74089,Townhouse,4,4.0,5956,16476,2020,4,2163794.83,06/09/2016,3507,363.3,2014684.86,2022,21522.09,Linda Jackson,True,CA-SA-21683,Very New
P-100466,10466,"2002 Meadow Ln, Apt 17E, Lawrenceville, GA 26700",2002 Meadow Ln,Apt 17E,Lawrenceville,GA,26700,Gwinnett,43.613253,-73.99603,Townhouse,6,1.0,3146,4159,1995,29,537770.37,13/10/2016,3470,170.94,492836.25,2023,5833.07,Margaret Baker,False,GA-GW-26555,Mid-age
P-100467,10467,"3739 River Blvd, Apt 17A, Baton Rouge, LA 61814",3739 River Blvd,Apt 17A,Baton Rouge,LA,61814,East Baton Rouge,21.243496,-82.844504,Townhouse,2,3.0,2393,10582,2007,17,475511.93,16/07/2019,2464,198.71,420836.54,2024,6726.74,George Williams,True,LA-EA-50487,New
P-100476,10476,"9554 Orchard Ln, Apt 18B, Brooklyn, NY 51017",9554 Orchard Ln,Apt 18B,Brooklyn,NY,51017,Kings,34.850656,-71.216302,Townhouse,5,5.0,4782,8220,2008,16,751977.85,02/02/2017,3358,157.25,611674.32,2022,13456.84,Lisa Wilson,False,NY-KI-88924,New
P-100477,10477,"5982 Jackson Dr, Apt 21C, Baton Rouge, LA 26841",5982 Jackson Dr,Apt 21C,Baton Rouge,LA,26841,East Baton Rouge,40.321267,-120.284694,Condo,3,3.0,3727,14372,1940,84,432046.31,07/05/2025,342,115.92,468088.54,2024,6133.89,George Martinez,True,LA-EA-19248,Old
P-100478,10478,"3256 Meadow Ln, Apt 14A, Honolulu, HI 83877",3256 Meadow Ln,Apt 14A,Honolulu,HI,83877,Honolulu,38.418928,-85.615786,Townhouse,2,4.0,1857,7040,2020,4,1772562.75,28/12/2025,107,954.53,1930684.76,2022,17241.58,Linda Wright,True,HI-HO-81875,Very New
P-100481,10481,"8514 Sunset Blvd, Apt 17B, Houston, TX 96188",8514 Sunset Blvd,Apt 17B,Houston,TX,96188,Harris,24.348762,-124.044342,Condo,1,3.5,6395,10476,2006,18,594788.33,11/05/2018,2895,93.01,557516.5,2023,11150.33,Ashley Allen,True,TX-HA-66068,New
P-100484,10484,"793 Harbor View Blvd, Apt 27E, Tulsa, OK 32089",793 Harbor View Blvd,Apt 27E,Tulsa,OK,32089,Tulsa,38.874837,-80.272041,Condo,2,2.0,1215,7228,1937,87,520673.9,17/09/2025,209,428.54,482569.26,2023,4847.8,Linda Perez,False,OK-TU-42737,Old
P-100485,10485,"4852 Clearwater Ct, Apt 11C, Tampa, FL 73324",4852 Clearwater Ct,Apt 11C,Tampa,FL,73324,Hillsborough,28.778944,-138.463263,Townhouse,4,2.5,3097,13631,1985,39,764067.36,19/11/2025,146,246.71,825669.77,2024,15010.86,Patricia Thompson,True,FL-HI-70339,Mid-age
P-100486,10486,"1855 Main St, Apt 9B, Knoxville, TN 55838",1855 Main St,Apt 9B,Knoxville,TN,55838,Knox,44.590201,-140.80428,Townhouse,1,1.5,4129,12190,1945,79,186100.15,07/07/2020,2107,45.07,199043.97,2023,1888.15,Dorothy Smith,True,TN-KN-96066,Old
P-100487,10487,"6577 Meadow Ln, Apt 10A, Rockville, MD 49227",6577 Meadow Ln,Apt 10A,Rockville,MD,49227,Montgomery,30.659136,-79.379175,Condo,7,3.0,1490,8675,2004,20,1307228.95,20/06/2024,663,877.33,1100637.52,2024,14536.69,Matthew Rivera,True,MD-MO-34846,Mid-age
P-100490,10490,"2598 Birch St, Apt 21B, Charlotte, NC 34492",2598 Birch St,Apt 21B,Charlotte,NC,34492,Mecklenburg,27.61087,-90.294698,Condo,6,2.5,6058,13089,1945,79,489636.41,03/07/2017,3207,80.82,510683.79,2024,8561.86,Michelle Lopez,True,NC-ME-87489,Old
P-100492,10492,"8453 Summit Rd, Apt 9E, San Jose, CA 94393",8453 Summit Rd,Apt 9E,San Jose,CA,94393,Santa Clara,22.36887,-147.425219,Townhouse,3,3.5,6429,13278,1951,73,1425514.7,01/10/2025,195,221.73,1218138.64,2022,10507.14,Deborah Lee,True,CA-SA-71873,Old
P-100493,10493,"7159 Washington Ave, Apt 20C, Miami, FL 43064",7159 Washington Ave,Apt 20C,Miami,FL,43064,Miami-Dade,46.130697,-125.368432,Condo,1,1.5,6080,6303,2007,17,550379.22,13/08/2016,3531,90.52,461819.03,2023,7802.67,Margaret Mitchell,False,FL-MI-79319,New
P-100495,10495,"8841 Sunset Blvd, Apt 20C, Chicago, IL 15742",8841 Sunset Blvd,Apt 20C,Chicago,IL,15742,Cook,24.387547,-120.615507,Condo,7,5.0,3445,9441,1977,47,611294.42,19/12/2024,481,177.44,656074.64,2022,13777.57,Kimberly Allen,False,IL-CO-31880,Mid-age
P-100496,10496,"4845 Maple Dr, Apt 7B, Jacksonville, FL 84209",4845 Maple Dr,Apt 7B,Jacksonville,FL,84209,Duval,22.611025,-72.394762,Condo,6,4.0,4655,15873,1988,36,798799.46,10/06/2025,308,171.6,678704.33,2024,8558.33,Stephanie Harris,True,FL-DU-45585,Mid-age
P-100497,10497,"2721 Jefferson St, Apt 8C, Austin, TX 87609",2721 Jefferson St,Apt 8C,Austin,TX,87609,Travis,39.463126,-80.513514,Condo,4,5.0,6397,18202,1987,37,321891.0,21/09/2016,3492,50.32,278790.08,2024,5575.8,Linda Hernandez,True,TX-TR-79935,Mid-age
P-100498,10498,"2527 Jackson Dr, Apt 14E, Los Angeles, CA 27428",2527 Jackson Dr,Apt 14E,Los Angeles,CA,27428,Los Angeles,28.166524,-88.215945,Condo,7,2.5,4979,6882,1920,104,2428368.78,10/03/2019,2592,487.72,2383560.18,2023,28351.83,Melissa Scott,True,CA-LO-27512,Old
P-100499,10499,"5418 Cedar Ln, Apt 9E, Denver, CO 92045",5418 Cedar Ln,Apt 9E,Denver,CO,92045,Denver,42.621937,-85.317935,Condo,6,3.0,2047,6241,1922,102,944866.43,19/07/2016,3556,461.59,976477.69,2024,9059.09,Deborah Hall,True,CO-DE-95698,Old
P-100505,10505,"1766 Heritage Ln, Apt 12A, Phoenix, AZ 56833",1766 Heritage Ln,Apt 12A,Phoenix,AZ,56833,Maricopa,23.021683,-127.965943,Townhouse,1,1.0,5552,8027,1942,82,454330.16,12/07/2022,1372,81.83,445190.6,2024,5833.3,Brian Baker,True,AZ-MA-47618,Old
P-100507,10507,"1581 Ridgewood Rd, Apt 18D, Manhattan, NY 26716",1581 Ridgewood Rd,Apt 18D,Manhattan,NY,26716,New York,25.819617,-123.503486,Townhouse,4,4.0,4542,15903,1972,52,2285316.5,22/02/2019,2608,503.15,2056875.22,2024,45251.25,Anthony Clark,True,NY-NE-80614,Old
P-100508,10508,"8885 Madison Ave, Apt 30C, Salt Lake City, UT 60413",8885 Madison Ave,Apt 30C,Salt Lake City,UT,60413,Salt Lake,23.21587,-94.801868,Condo,5,2.5,6359,7788,1950,74,402133.36,02/01/2024,833,63.24,441611.43,2022,5453.36,Steven Rodriguez,False,UT-SA-17808,Old
P-100510,10510,"1308 Riverside Dr, Apt 16D, New Orleans, LA 87847",1308 Riverside Dr,Apt 16D,New Orleans,LA,87847,Orleans,44.06764,-154.373841,Townhouse,2,1.5,2607,3869,1921,103,563962.86,27/02/2017,3333,216.33,521636.58,2022,7113.65,David Mitchell,True,LA-OR-49257,Old
P-100518,10518,"1528 Orchard Ln, Apt 21B, Indianapolis, IN 22335",1528 Orchard Ln,Apt 21B,Indianapolis,IN,22335,Marion,33.052408,-142.234565,Condo,2,1.5,2894,12339,1966,58,395627.41,26/06/2025,292,136.71,337769.23,2023,3747.66,Steven Taylor,False,IN-MA-67939,Old
P-100520,10520,"1034 Monroe Blvd, Apt 4A, Los Angeles, CA 83505",1034 Monroe Blvd,Apt 4A,Los Angeles,CA,83505,Los Angeles,21.210488,-82.783799,Condo,4,2.0,5270,11811,1929,95,1130306.43,24/06/2016,3581,214.48,1061000.08,2022,12930.68,Ashley Adams,True,CA-LO-70929,Old
P-100521,10521,"1875 Creekside Dr, Apt 19A, Decatur, GA 66769",1875 Creekside Dr,Apt 19A,Decatur,GA,66769,DeKalb,26.285981,-128.401305,Townhouse,3,4.5,2341,13847,2014,10,491451.19,28/02/2023,1141,209.93,460181.92,2024,4541.49,Steven Martinez,False,GA-DE-51967,New
P-100522,10522,"6330 Cedar Ln, Apt 28D, Oklahoma City, OK 57381",6330 Cedar Ln,Apt 28D,Oklahoma City,OK,57381,Oklahoma,41.923317,-71.865208,Condo,1,2.5,787,11988,1974,50,330481.53,26/02/2019,2604,419.93,281845.12,2022,2489.0,Betty Garcia,True,OK-OK-69168,Old
P-100528,10528,"1733 Harbor View Blvd, Apt 23D, Provo, UT 75976",1733 Harbor View Blvd,Apt 23D,Provo,UT,75976,Utah,36.40269,-154.160708,Condo,7,4.0,2335,5986,2019,5,474611.31,04/01/2022,1561,203.26,395992.1,2023,7684.87,Matthew Robinson,True,UT-UT-94523,New
P-100529,10529,"6238 Madison Ave, Apt 11C, Austin, TX 76527",6238 Madison Ave,Apt 11C,Austin,TX,76527,Travis,28.515517,-80.474177,Condo,3,4.0,6115,10072,1920,104,822146.06,19/08/2021,1699,134.45,665775.84,2022,13315.52,Margaret King,False,TX-TR-88636,Old
P-100530,10530,"9474 Summit Rd, Apt 4B, Hempstead, NY 41697",9474 Summit Rd,Apt 4B,Hempstead,NY,41697,Nassau,35.727099,-122.951472,Townhouse,6,4.0,1022,10489,1974,50,843054.92,23/02/2019,2607,824.91,773185.49,2024,17010.08,Daniel King,True,NY-NA-40273,Old
P-100532,10532,"6365 Oak Ave, Apt 21A, Lexington, KY 27111",6365 Oak Ave,Apt 21A,Lexington,KY,27111,Fayette,47.060476,-101.801706,Townhouse,2,2.5,5945,9578,1958,66,271186.55,09/11/2016,3443,45.62,236902.15,2023,4085.31,Brian Brown,True,KY-FA-28844,Old
P-100544,10544,"7648 Park Way, Apt 8A, New Orleans, LA 26552",7648 Park Way,Apt 8A,New Orleans,LA,26552,Orleans,29.462316,-144.123871,Townhouse,7,4.0,5817,13137,2005,19,215451.18,13/05/2020,2162,37.04,187907.26,2023,2994.34,Karen Lee,False,LA-OR-73269,New
P-100545,10545,"4953 Pine Rd, Apt 25E, Durham, NC 56269",4953 Pine Rd,Apt 25E,Durham,NC,56269,Durham,35.800654,-81.060107,Condo,6,1.5,1215,9318,1927,97,285730.87,06/10/2018,2747,235.17,247111.67,2023,2534.13,Michael Perez,True,NC-DU-87401,Old
P-100547,10547,"1772 Sunset Blvd, Apt 5D, Lexington, KY 70418",1772 Sunset Blvd,Apt 5D,Lexington,KY,70418,Fayette,44.2192,-92.182739,Condo,1,4.5,2132,6502,1923,101,491467.53,30/04/2020,2175,230.52,459911.52,2023,4332.33,Emily Garcia,True,KY-FA-37795,Old
P-100549,10549,"4178 Park Way, Apt 16B, Boise, ID 38780",4178 Park Way,Apt 16B,Boise,ID,38780,Ada,24.05248,-79.129914,Townhouse,3,2.5,1139,9857,1932,92,334858.39,20/05/2016,3616,293.99,330192.55,2024,4244.53,Betty Miller,True,ID-AD-45162,Old
P-100553,10553,"322 Hillcrest Ave, Apt 8E, Kansas City, MO 49470",322 Hillcrest Ave,Apt 8E,Kansas City,MO,49470,Jackson,39.819165,-79.4506,Townhouse,4,1.5,2811,14046,1986,38,688008.12,19/01/2026,85,244.76,580933.5,2023,10616.67,Brian Martinez,True,MO-JA-14050,Mid-age
P-100555,10555,"8620 Valley View Dr, Apt 10D, New Orleans, LA 90264",8620 Valley View Dr,Apt 10D,New Orleans,LA,90264,Orleans,24.258473,-87.806037,Townhouse,7,3.5,2962,4767,1921,103,509163.07,06/08/2018,2808,171.9,429804.57,2024,4213.26,Charles Flores,True,LA-OR-31313,Old
P-100556,10556,"1158 Heritage Ln, Apt 22E, Everett, WA 12043",1158 Heritage Ln,Apt 22E,Everett,WA,12043,Snohomish,33.027242,-138.092699,Townhouse,1,1.0,4600,9610,1920,104,1762484.63,17/11/2018,2705,383.15,1851019.55,2022,20393.06,Matthew Jackson,False,WA-SN-75797,Old
P-100559,10559,"1673 Lake Dr, Apt 20C, Saint Paul, MN 79018",1673 Lake Dr,Apt 20C,Saint Paul,MN,79018,Ramsey,32.710385,-129.74634,Townhouse,4,3.5,4103,11746,1973,51,869928.6,09/02/2021,1890,212.02,703164.92,2024,5848.27,Stephanie Clark,True,MN-RA-28426,Old
P-100560,10560,"9608 Birch St, Apt 4C, Charlotte, NC 58904",9608 Birch St,Apt 4C,Charlotte,NC,58904,Mecklenburg,24.372784,-109.735549,Townhouse,3,1.0,3816,5879,1971,53,642661.8,03/02/2021,1896,168.41,669810.6,2024,9057.61,Patricia Garcia,True,NC-ME-95181,Old
P-100563,10563,"6728 Riverside Dr, Apt 7D, Aurora, CO 34123",6728 Riverside Dr,Apt 7D,Aurora,CO,34123,Arapahoe,42.73718,-83.77029,Condo,3,4.5,5991,16102,1935,89,818824.44,24/02/2019,2606,136.68,660379.75,2022,11769.68,Brian Thomas,True,CO-AR-81654,Old
P-100570,10570,"1279 Valley View Dr, Apt 28A, Provo, UT 34288",1279 Valley View Dr,Apt 28A,Provo,UT,34288,Utah,39.082572,-73.676306,Condo,4,2.5,2299,11643,1980,44,510663.22,14/04/2022,1461,222.12,503280.9,2024,9180.38,John Lewis,True,UT-UT-59298,Mid-age
P-100571,10571,"1380 Lake Dr, Apt 10A, Louisville, KY 77796",1380 Lake Dr,Apt 10A,Louisville,KY,77796,Jefferson,28.903015,-146.740308,Condo,1,5.0,3310,3679,1948,76,760635.69,12/01/2023,1188,229.8,818962.76,2023,10388.64,Matthew Jones,False,KY-JE-30691,Old
P-100574,10574,"8236 Birch St, Apt 16A, Fort Worth, TX 39523",8236 Birch St,Apt 16A,Fort Worth,TX,39523,Tarrant,38.23393,-119.458146,Condo,7,2.5,775,1681,1923,101,723418.33,08/03/2017,3324,933.44,621309.49,2024,12426.19,Amanda Baker,False,TX-TA-82416,Old
P-100578,10578,"6831 Orchard Ln, Apt 4A, Memphis, TN 46671",6831 Orchard Ln,Apt 4A,Memphis,TN,46671,Shelby,23.078821,-77.651719,Condo,2,3.0,5129,8582,1935,89,410464.19,16/02/2017,3344,80.03,425397.71,2022,8395.19,George Lewis,False,TN-SH-69475,Old
P-100581,10581,"6458 Heritage Ln, Apt 25E, Indianapolis, IN 80092",6458 Heritage Ln,Apt 25E,Indianapolis,IN,80092,Marion,33.282817,-107.183578,Townhouse,7,5.0,2730,5393,1968,56,484519.33,12/08/2023,976,177.48,406783.93,2022,4624.48,Amanda Moore,True,IN-MA-42759,Old
P-100582,10582,"5630 Creekside Dr, Apt 12D, Denver, CO 15060",5630 Creekside Dr,Apt 12D,Denver,CO,15060,Denver,37.312002,-125.532547,Condo,7,1.0,1618,6646,1992,32,1092931.77,27/11/2016,3425,675.48,961075.3,2022,12807.01,Mary Lewis,True,CO-DE-14850,Mid-age
P-100583,10583,"9219 Jefferson St, Apt 28E, Honolulu, HI 63557",9219 Jefferson St,Apt 28E,Honolulu,HI,63557,Honolulu,22.552498,-75.32142,Condo,5,5.0,3172,4221,1976,48,998401.92,10/09/2017,3138,314.75,1034365.07,2023,19061.97,David Anderson,False,HI-HO-29254,Mid-age
P-100584,10584,"912 Madison Ave, Apt 18A, Billings, MT 25000",912 Madison Ave,Apt 18A,Billings,MT,25000,Yellowstone,38.346922,-140.969772,Condo,7,4.5,5350,10549,1925,99,551658.03,23/09/2023,934,103.11,451390.8,2024,8984.33,Thomas Johnson,False,MT-YE-56312,Old
P-100585,10585,"3945 Hillcrest Ave, Apt 26C, Oklahoma City, OK 24308",3945 Hillcrest Ave,Apt 26C,Oklahoma City,OK,24308,Oklahoma,23.053197,-118.388296,Condo,1,2.5,2271,7608,1993,31,409660.3,21/01/2017,3370,180.39,411423.84,2022,6460.44,Charles Martinez,True,OK-OK-89556,Mid-age
P-100588,10588,"7838 Harbor View Blvd, Apt 18E, San Diego, CA 51541",7838 Harbor View Blvd,Apt 18E,San Diego,CA,51541,San Diego,28.133342,-84.267222,Condo,2,3.5,2591,8521,1949,75,1840254.58,22/11/2017,3065,710.25,2009040.99,2024,21883.59,Timothy Clark,True,CA-SA-56135,Old
P-100589,10589,"6035 Riverside Dr, Apt 14D, Irvine, CA 89327",6035 Riverside Dr,Apt 14D,Irvine,CA,89327,Orange,27.104271,-88.59154,Condo,5,2.0,5004,9017,2019,5,3223260.5,21/09/2018,2762,644.14,3144054.03,2022,47998.85,Charles Perez,True,CA-OR-20683,New
P-100593,10593,"7530 Forest Glen Rd, Apt 25B, Billings, MT 52000",7530 Forest Glen Rd,Apt 25B,Billings,MT,52000,Yellowstone,32.622557,-112.745954,Townhouse,3,1.5,2502,7373,1983,41,386071.42,16/12/2019,2311,154.31,368815.3,2024,5516.72,Sandra Jackson,True,MT-YE-51756,Mid-age
P-100599,10599,"8139 Jefferson St, Apt 13E, Oakland, CA 33345",8139 Jefferson St,Apt 13E,Oakland,CA,33345,Alameda,22.028537,-97.145596,Townhouse,4,2.5,5824,11537,1981,43,2067906.47,06/04/2024,738,355.07,2198943.28,2022,40681.48,Brian Young,True,CA-AL-92578,Mid-age
P-100600,10600,"9003 Riverside Dr, Apt 25D, Knoxville, TN 48720",9003 Riverside Dr,Apt 25D,Knoxville,TN,48720,Knox,23.558131,-147.224034,Condo,4,4.5,3265,7318,2004,20,451394.92,22/04/2024,722,138.25,424049.77,2023,6753.99,Matthew Hall,True,TN-KN-26784,Mid-age
P-100601,10601,"9947 Willow Way, Apt 9D, Fairfax, VA 40783",9947 Willow Way,Apt 9D,Fairfax,VA,40783,Fairfax,21.767508,-133.690624,Condo,7,4.0,1098,10310,2018,6,687830.42,18/09/2018,2765,626.44,615804.61,2023,10904.89,Sandra Sanchez,True,VA-FA-17160,New
P-100604,10604,"1779 Birch St, Apt 28A, Columbia, SC 62158",1779 Birch St,Apt 28A,Columbia,SC,62158,Richland,41.970602,-153.32119,Condo,3,1.0,2484,12831,2018,6,656694.62,26/11/2025,139,264.37,579032.26,2022,10281.27,Anthony Adams,True,SC-RI-45389,New
P-100613,10613,"9261 Madison Ave, Apt 5A, Memphis, TN 55214",9261 Madison Ave,Apt 5A,Memphis,TN,55214,Shelby,37.663776,-76.274484,Condo,3,4.0,5387,17336,1959,65,406474.35,06/09/2017,3142,75.45,374354.95,2023,5515.5,Carol Nelson,True,TN-SH-87678,Old
P-100614,10614,"4687 Washington Ave, Apt 26B, Waukegan, IL 44463",4687 Washington Ave,Apt 26B,Waukegan,IL,44463,Lake,35.936984,-145.976744,Condo,5,4.0,3304,12735,2018,6,785652.17,02/07/2019,2478,237.79,693865.41,2024,14571.17,Brian Walker,True,IL-LA-10350,New
P-100615,10615,"1596 Sunset Blvd, Apt 25D, Waukegan, IL 28786",1596 Sunset Blvd,Apt 25D,Waukegan,IL,28786,Lake,25.367687,-80.908574,Townhouse,1,1.0,1722,10105,2023,1,462957.44,29/10/2018,2724,268.85,435877.54,2023,9153.43,Linda Thomas,True,IL-LA-59454,Very New
P-100616,10616,"5916 Clearwater Ct, Apt 21C, Rockville, MD 78417",5916 Clearwater Ct,Apt 21C,Rockville,MD,78417,Montgomery,29.399756,-150.196629,Townhouse,7,2.5,1960,12343,1955,69,1153617.21,11/11/2016,3441,588.58,1074217.17,2023,14911.34,Thomas Baker,True,MD-MO-67070,Old
P-100618,10618,"1641 Meadow Ln, Apt 20D, Reno, NV 43260",1641 Meadow Ln,Apt 20D,Reno,NV,43260,Washoe,34.324024,-155.869478,Condo,1,3.0,5856,13699,1970,54,154255.56,26/06/2018,2849,26.34,155995.46,2023,2418.44,Kenneth Johnson,False,NV-WA-71709,Old
P-100620,10620,"1697 Jackson Dr, Apt 27E, Las Vegas, NV 35451",1697 Jackson Dr,Apt 27E,Las Vegas,NV,35451,Clark,38.360288,-92.841534,Townhouse,7,3.5,6410,9182,1995,29,683265.72,05/03/2022,1501,106.59,652451.89,2024,8376.23,Brian Nelson,True,NV-CL-35289,Mid-age
P-100626,10626,"1813 Hillcrest Ave, Apt 24D, Henderson, NV 11035",1813 Hillcrest Ave,Apt 24D,Henderson,NV,11035,Clark,25.206888,-115.631855,Townhouse,6,1.5,2132,7997,1959,65,246941.6,25/02/2020,2240,115.83,211344.53,2022,2804.14,Michelle Robinson,True,NV-CL-67012,Old
P-100634,10634,"8865 Meadow Ln, Apt 2D, Reno, NV 24637",8865 Meadow Ln,Apt 2D,Reno,NV,24637,Washoe,41.81561,-71.676098,Condo,7,4.0,6127,7437,1939,85,125426.25,07/05/2018,2899,20.47,122547.2,2022,1737.57,Michelle Campbell,False,NV-WA-67001,Old
P-100635,10635,"752 Park Way, Apt 11C, Everett, WA 74175",752 Park Way,Apt 11C,Everett,WA,74175,Snohomish,33.196644,-152.643605,Townhouse,6,3.5,2667,9641,1963,61,2508738.66,07/09/2017,3141,940.66,2623515.47,2024,29401.28,Charles Thompson,True,WA-SN-68559,Old
P-100638,10638,"7201 Park Way, Apt 22A, San Francisco, CA 35119",7201 Park Way,Apt 22A,San Francisco,CA,35119,San Francisco,36.128721,-70.442098,Townhouse,5,5.0,2596,13970,2022,2,598935.22,08/11/2019,2349,230.71,564122.42,2023,6373.14,George Roberts,True,CA-SA-75740,Very New
P-100640,10640,"4815 Lakeshore Dr, Apt 22D, Wichita, KS 87059",4815 Lakeshore Dr,Apt 22D,Wichita,KS,87059,Sedgwick,32.150267,-105.214924,Condo,4,4.5,5168,5373,1963,61,385664.86,26/05/2022,1419,74.63,403709.58,2022,5467.59,Deborah Young,True,KS-SE-32283,Old
P-100642,10642,"5861 Summit Rd, Apt 10B, Hempstead, NY 64446",5861 Summit Rd,Apt 10B,Hempstead,NY,64446,Nassau,47.389385,-154.963474,Condo,5,4.5,2522,8670,1988,36,851677.04,23/06/2019,2487,337.7,923767.86,2022,20322.89,Jessica Wilson,False,NY-NA-84808,Mid-age
P-100643,10643,"6671 Willow Way, Apt 16D, Bronx, NY 56140",6671 Willow Way,Apt 16D,Bronx,NY,56140,Bronx,40.908944,-120.61834,Townhouse,3,3.5,3575,13901,1933,91,2475915.46,31/07/2018,2814,692.56,2693973.84,2024,59267.42,Andrew Wright,True,NY-BR-62948,Old
P-100644,10644,"7463 Broadway, Apt 8B, Everett, WA 33281",7463 Broadway,Apt 8B,Everett,WA,33281,Snohomish,31.601441,-156.709648,Townhouse,7,4.5,5975,8797,2007,17,3217206.7,25/12/2021,1571,538.44,3133711.66,2023,61705.82,Mark Gonzalez,False,WA-SN-91117,New
P-100646,10646,"7600 Meadow Ln, Apt 21A, Bronx, NY 41367",7600 Meadow Ln,Apt 21A,Bronx,NY,41367,Bronx,25.643091,-75.468743,Condo,3,2.0,3000,4061,1923,101,1081372.18,10/02/2021,1889,360.46,1014065.28,2024,22309.44,Sarah Lopez,False,NY-BR-75564,Old
P-100648,10648,"8851 Oak Ave, Apt 25E, Boise, ID 67477",8851 Oak Ave,Apt 25E,Boise,ID,67477,Ada,33.7414,-93.835238,Condo,7,4.0,926,6879,1971,53,678967.21,18/07/2020,2096,733.23,671349.51,2023,8823.59,Linda Miller,True,ID-AD-44406,Old
P-100649,10649,"2868 Meadow Ln, Apt 23D, Orlando, FL 64118",2868 Meadow Ln,Apt 23D,Orlando,FL,64118,Orange,38.39823,-144.650341,Condo,7,4.5,2321,6654,1932,92,377420.03,03/07/2018,2842,162.61,310322.62,2024,4313.15,Sarah Carter,True,FL-OR-48704,Old
P-100654,10654,"6628 River Blvd, Apt 6A, Fort Worth, TX 53190",6628 River Blvd,Apt 6A,Fort Worth,TX,53190,Tarrant,34.446537,-133.3818,Condo,7,5.0,1250,2167,1977,47,562027.69,03/07/2023,1016,449.62,490879.3,2024,9817.59,Carol Thomas,True,TX-TA-69777,Mid-age
P-100660,10660,"7862 Willow Way, Apt 2D, Charleston, SC 45308",7862 Willow Way,Apt 2D,Charleston,SC,45308,Charleston,27.061175,-134.131579,Condo,3,2.0,3108,8575,2013,11,396068.19,04/12/2017,3053,127.44,354324.18,2023,4642.91,Betty Carter,True,SC-CH-62963,New
P-100661,10661,"2392 Lakeshore Dr, Apt 28C, Knoxville, TN 45940",2392 Lakeshore Dr,Apt 28C,Knoxville,TN,45940,Knox,21.51621,-95.722515,Condo,6,3.0,3014,9133,1923,101,371039.72,31/05/2017,3240,123.11,339398.16,2024,4995.83,Richard Wilson,False,TN-KN-67685,Old
P-100662,10662,"1319 Monroe Blvd, Apt 21C, Fort Lauderdale, FL 31026",1319 Monroe Blvd,Apt 21C,Fort Lauderdale,FL,31026,Broward,29.6253,-115.267605,Townhouse,4,1.0,6001,12391,2008,16,868590.73,12/05/2018,2894,144.74,821784.46,2023,16306.79,Donna Harris,True,FL-BR-17355,New
P-100665,10665,"6034 Valley View Dr, Apt 14A, Kansas City, MO 36081",6034 Valley View Dr,Apt 14A,Kansas City,MO,36081,Jackson,38.958223,-95.746753,Condo,5,1.0,1749,3701,2002,22,440407.58,02/11/2021,1624,251.81,458825.18,2022,8249.72,Patricia Allen,True,MO-JA-84149,Mid-age
P-100668,10668,"6488 Oak Ave, Apt 5B, Austin, TX 11119",6488 Oak Ave,Apt 5B,Austin,TX,11119,Travis,26.968593,-119.837981,Condo,7,2.5,5387,16438,2018,6,374763.04,24/02/2021,1875,69.57,373295.4,2022,7465.91,Kenneth Thompson,False,TX-TR-85609,New
P-100673,10673,"359 Jackson Dr, Apt 20D, Rockville, MD 94850",359 Jackson Dr,Apt 20D,Rockville,MD,94850,Montgomery,44.779277,-153.052854,Condo,2,1.0,1648,10145,1939,85,468264.44,05/01/2021,1925,284.14,481697.24,2022,7299.86,Jessica Mitchell,False,MD-MO-58719,Old
P-100677,10677,"1446 River Blvd, Apt 25B, Phoenix, AZ 62931",1446 River Blvd,Apt 25B,Phoenix,AZ,62931,Maricopa,28.480944,-103.493734,Condo,2,3.0,2112,14072,2004,20,354864.35,25/04/2018,2911,168.02,387578.24,2024,5848.33,Kimberly Torres,False,AZ-MA-44960,Mid-age
P-100679,10679,"7977 Riverside Dr, Apt 9C, Lexington, KY 55075",7977 Riverside Dr,Apt 9C,Lexington,KY,55075,Fayette,25.975329,-81.351252,Townhouse,4,4.5,2359,9784,1999,25,324987.62,08/05/2021,1802,137.76,271477.02,2023,4307.13,Paul Perez,True,KY-FA-34421,Mid-age
P-100681,10681,"7514 Summit Rd, Apt 19E, Lakewood, CO 82521",7514 Summit Rd,Apt 19E,Lakewood,CO,82521,Jefferson,47.08426,-149.78185,Condo,2,4.0,4785,7977,1938,86,1308015.38,18/10/2023,909,273.36,1350883.5,2022,22696.12,Matthew King,False,CO-JE-29892,Old
P-100682,10682,"869 Meadow Ln, Apt 14B, Columbia, SC 80707",869 Meadow Ln,Apt 14B,Columbia,SC,80707,Richland,27.106224,-74.596776,Condo,2,3.5,1900,3540,2007,17,249195.7,03/03/2019,2599,131.16,263569.87,2022,4775.59,Ronald Rivera,True,SC-RI-89910,New
P-100685,10685,"2587 Jefferson St, Apt 15B, New Orleans, LA 68114",2587 Jefferson St,Apt 15B,New Orleans,LA,68114,Orleans,24.773824,-133.034084,Townhouse,1,1.5,4864,9962,1987,37,200037.52,27/03/2019,2575,41.13,195943.54,2022,3120.41,Lisa Davis,True,LA-OR-89958,Mid-age
P-100688,10688,"1461 Main St, Apt 13A, Knoxville, TN 23255",1461 Main St,Apt 13A,Knoxville,TN,23255,Knox,39.897034,-114.757258,Townhouse,4,2.5,5442,12548,2005,19,327288.25,11/07/2017,3199,60.14,342958.24,2023,5051.11,Kenneth Harris,False,TN-KN-97498,New
P-100689,10689,"1866 River Blvd, Apt 24D, Tulsa, OK 85448",1866 River Blvd,Apt 24D,Tulsa,OK,85448,Tulsa,23.515209,-72.894525,Condo,3,4.0,3825,15593,2015,9,151094.64,10/01/2019,2651,39.5,156600.67,2023,2330.24,Kimberly Williams,False,OK-TU-92328,New
P-100690,10690,"3639 Washington Ave, Apt 9B, San Antonio, TX 13164",3639 Washington Ave,Apt 9B,San Antonio,TX,13164,Bexar,37.708814,-128.380285,Condo,4,1.0,4340,8493,1965,59,758327.38,04/06/2022,1410,174.73,686827.37,2022,13736.55,Patricia Lee,True,TX-BE-93205,Old
P-100694,10694,"1797 Heritage Ln, Apt 21B, Detroit, MI 90402",1797 Heritage Ln,Apt 21B,Detroit,MI,90402,Wayne,36.10783,-149.847591,Condo,4,1.0,2614,11592,1939,85,640666.64,19/03/2023,1122,245.09,517599.55,2022,9316.26,Joseph Thomas,False,MI-WA-67718,Old
P-100696,10696,"6063 Adams St, Apt 23D, Durham, NC 66533",6063 Adams St,Apt 23D,Durham,NC,66533,Durham,30.811055,-78.695401,Condo,3,5.0,3525,4787,2008,16,224904.39,21/08/2016,3523,63.8,235752.51,2024,2584.49,Andrew Nguyen,True,NC-DU-76512,New
P-100697,10697,"5236 River Blvd, Apt 18A, Salt Lake City, UT 89179",5236 River Blvd,Apt 18A,Salt Lake City,UT,89179,Salt Lake,27.037347,-126.694177,Condo,7,2.5,4411,8820,1993,31,772558.46,13/02/2021,1886,175.14,761465.9,2023,11492.62,John Hernandez,True,UT-SA-68781,Mid-age
P-100698,10698,"7909 Sunset Blvd, Apt 23C, Memphis, TN 18359",7909 Sunset Blvd,Apt 23C,Memphis,TN,18359,Shelby,39.073186,-151.30909,Condo,5,3.0,825,12516,1996,28,502831.66,21/05/2018,2885,609.49,517569.43,2022,10265.72,Jessica Nelson,True,TN-SH-80568,Mid-age
P-100699,10699,"3910 Birch St, Apt 8E, Reno, NV 63364",3910 Birch St,Apt 8E,Reno,NV,63364,Washoe,24.822176,-110.053703,Townhouse,3,1.0,5593,6460,2011,13,708483.73,11/09/2019,2407,126.67,592225.1,2022,9100.25,Kimberly Clark,False,NV-WA-35509,New
P-100700,10700,"3069 Oak Ave, Apt 12B, Atlanta, GA 95119",3069 Oak Ave,Apt 12B,Atlanta,GA,95119,Fulton,45.613894,-93.605961,Townhouse,1,1.5,3905,13309,2009,15,860243.31,09/12/2021,1587,220.29,895921.2,2023,14654.57,David Perez,True,GA-FU-50789,New
P-100701,10701,"4228 Orchard Ln, Apt 6A, Saint Paul, MN 21892",4228 Orchard Ln,Apt 6A,Saint Paul,MN,21892,Ramsey,25.891009,-122.075785,Condo,3,1.5,3382,10783,2016,8,193341.75,24/05/2023,1056,57.17,155856.7,2024,1360.76,Emily Brown,False,MN-RA-22516,New
P-100704,10704,"9987 Sunset Blvd, Apt 12A, Lawrenceville, GA 90372",9987 Sunset Blvd,Apt 12A,Lawrenceville,GA,90372,Gwinnett,45.379977,-75.409811,Condo,7,4.0,4269,6175,2005,19,552480.24,28/06/2022,1386,129.42,482794.06,2022,5249.62,Dorothy Gonzalez,False,GA-GW-15451,New
P-100705,10705,"9785 River Blvd, Apt 13D, Baltimore, MD 78136",9785 River Blvd,Apt 13D,Baltimore,MD,78136,Baltimore,23.410267,-100.03204,Condo,5,5.0,4873,11331,2016,8,955657.34,11/01/2024,824,196.11,845535.48,2022,11308.91,Richard Jackson,False,MD-BA-65878,New
P-100709,10709,"4038 Valley View Dr, Apt 24C, Austin, TX 33207",4038 Valley View Dr,Apt 24C,Austin,TX,33207,Travis,47.157766,-85.088218,Townhouse,7,4.0,966,3520,1938,86,587026.28,24/04/2019,2547,607.69,587354.92,2023,11747.1,Melissa Green,True,TX-TR-95634,Old
P-100710,10710,"267 Willow Way, Apt 4B, Philadelphia, PA 64216",267 Willow Way,Apt 4B,Philadelphia,PA,64216,Philadelphia,30.993992,-83.690821,Condo,7,4.5,2676,12508,1921,103,608698.94,06/11/2021,1620,227.47,494592.12,2023,4721.7,George Anderson,True,PA-PH-24992,Old
P-100711,10711,"1189 Washington Ave, Apt 7B, Fairfax, VA 80377",1189 Washington Ave,Apt 7B,Fairfax,VA,80377,Fairfax,29.675532,-74.915228,Condo,6,4.0,2933,11719,1956,68,641645.79,21/11/2019,2336,218.77,563653.59,2022,7180.31,Richard Garcia,True,VA-FA-75269,Old
P-100713,10713,"3547 Ridgewood Rd, Apt 21B, Lawrenceville, GA 15735",3547 Ridgewood Rd,Apt 21B,Lawrenceville,GA,15735,Gwinnett,36.073236,-74.472721,Townhouse,7,3.0,2037,7773,1979,45,276506.45,22/01/2019,2639,135.74,225885.99,2023,2222.08,Charles Allen,True,GA-GW-34112,Mid-age
P-100714,10714,"7290 Oak Ave, Apt 24C, Reno, NV 67741",7290 Oak Ave,Apt 24C,Reno,NV,67741,Washoe,22.838646,-135.617477,Condo,3,5.0,1919,4267,1990,34,872057.7,24/08/2025,233,454.43,726781.38,2022,9389.35,Andrew Johnson,False,NV-WA-32271,Mid-age
P-100717,10717,"4314 Broadway, Apt 14D, Detroit, MI 58244",4314 Broadway,Apt 14D,Detroit,MI,58244,Wayne,40.610148,-119.438917,Condo,2,1.0,4367,11090,2010,14,806247.92,24/09/2016,3489,184.62,699900.34,2023,6649.26,Kevin Thompson,True,MI-WA-63188,New
P-100719,10719,"6240 Clearwater Ct, Apt 1B, Philadelphia, PA 37985",6240 Clearwater Ct,Apt 1B,Philadelphia,PA,37985,Philadelphia,31.409983,-116.089777,Condo,6,4.5,3060,13276,1972,52,159690.85,06/11/2023,890,52.19,143930.15,2022,2290.77,Kimberly Ramirez,True,PA-PH-68062,Old
P-100731,10731,"203 Pine Rd, Apt 10E, Boston, MA 33049",203 Pine Rd,Apt 10E,Boston,MA,33049,Suffolk,46.816044,-134.096241,Condo,5,2.5,6334,8365,2009,15,2773082.89,04/03/2024,771,437.81,2374076.24,2023,40538.38,Joseph Hernandez,True,MA-SU-87635,New
P-100732,10732,"8401 Heritage Ln, Apt 3D, Philadelphia, PA 38607",8401 Heritage Ln,Apt 3D,Philadelphia,PA,38607,Philadelphia,32.302868,-85.271234,Condo,5,1.0,5964,17162,1952,72,339530.33,22/06/2024,661,56.93,278209.79,2022,3874.65,Timothy Brown,False,PA-PH-66373,Old
P-100733,10733,"1545 Ridgewood Rd, Apt 24B, Houston, TX 87088",1545 Ridgewood Rd,Apt 24B,Houston,TX,87088,Harris,41.441732,-77.44053,Townhouse,6,1.5,5262,9561,2013,11,774985.64,24/03/2021,1847,147.28,703248.13,2023,14064.96,Lisa Carter,True,TX-HA-81554,New
P-100739,10739,"3983 Monroe Blvd, Apt 25B, Baton Rouge, LA 74040",3983 Monroe Blvd,Apt 25B,Baton Rouge,LA,74040,East Baton Rouge,35.927398,-79.521537,Townhouse,5,1.5,3746,6176,1999,25,370890.85,07/05/2020,2168,99.01,351338.28,2024,6606.97,Timothy Moore,True,LA-EA-61062,Mid-age
P-100745,10745,"1118 Willow Way, Apt 27B, Provo, UT 94124",1118 Willow Way,Apt 27B,Provo,UT,94124,Utah,41.92781,-96.570965,Condo,7,1.5,2297,9645,1940,84,209894.34,16/07/2016,3559,91.38,184334.75,2022,1599.69,Amanda Scott,True,UT-UT-94266,Old
P-100748,10748,"4710 Jackson Dr, Apt 17D, Omaha, NE 82910",4710 Jackson Dr,Apt 17D,Omaha,NE,82910,Douglas,30.918965,-123.207479,Condo,7,3.0,3340,6547,1961,63,820383.94,17/11/2021,1609,245.62,685636.12,2023,9201.1,Donald Hill,False,NE-DO-98060,Old
P-100749,10749,"3128 Park Way, Apt 7E, Naperville, IL 15460",3128 Park Way,Apt 7E,Naperville,IL,15460,DuPage,31.26748,-147.714523,Condo,2,3.0,6250,17296,1947,77,811588.68,10/02/2017,3350,129.85,723134.59,2023,15185.83,Kevin Anderson,True,IL-DU-43073,Old
P-100750,10750,"5177 Main St, Apt 28B, San Antonio, TX 38367",5177 Main St,Apt 28B,San Antonio,TX,38367,Bexar,42.984061,-82.148853,Condo,4,4.0,6497,11860,1978,46,887699.0,14/07/2019,2466,136.63,910919.07,2023,18218.38,Joshua Jackson,False,TX-BE-97428,Mid-age
P-100751,10751,"1857 Main St, Apt 3C, Irvine, CA 14089",1857 Main St,Apt 3C,Irvine,CA,14089,Orange,37.410834,-82.42656,Condo,1,3.0,4245,10494,2013,11,2182738.28,29/06/2024,654,514.19,1809860.67,2023,19155.03,Richard Ramirez,False,CA-OR-58866,New
P-100752,10752,"466 Clearwater Ct, Apt 28E, Pittsburgh, PA 14586",466 Clearwater Ct,Apt 28E,Pittsburgh,PA,14586,Allegheny,44.810825,-130.72164,Condo,4,2.5,1585,12016,2015,9,862891.49,23/05/2017,3248,544.41,698174.38,2023,7048.05,Linda Garcia,False,PA-AL-69669,New
P-100759,10759,"9553 Hillcrest Ave, Apt 8D, Phoenix, AZ 63477",9553 Hillcrest Ave,Apt 8D,Phoenix,AZ,63477,Maricopa,39.226725,-71.0483,Condo,6,4.5,1875,13244,2016,8,266898.28,11/04/2026,3,142.35,285035.37,2024,5016.4,Dorothy Martinez,False,AZ-MA-50180,New
P-100764,10764,"9357 Forest Glen Rd, Apt 7D, Tacoma, WA 80210",9357 Forest Glen Rd,Apt 7D,Tacoma,WA,80210,Pierce,38.323111,-152.761806,Townhouse,1,5.0,4623,7472,1977,47,1344837.9,16/06/2024,667,290.9,1091934.34,2024,13078.08,Linda Baker,True,WA-PI-20069,Mid-age
P-100767,10767,"7018 Elm St, Apt 18C, Fort Wayne, IN 18542",7018 Elm St,Apt 18C,Fort Wayne,IN,18542,Allen,23.311938,-80.633051,Townhouse,4,4.0,4754,8739,1937,87,214388.48,19/06/2024,664,45.1,177066.29,2022,2828.76,Donald Nelson,False,IN-AL-58931,Old
P-100768,10768,"1194 Washington Ave, Apt 17A, Baltimore, MD 86299",1194 Washington Ave,Apt 17A,Baltimore,MD,86299,Baltimore,31.951278,-108.309007,Condo,2,2.0,3060,5242,2015,9,1141768.68,27/02/2026,46,373.13,1040787.88,2024,18169.08,Linda King,False,MD-BA-86752,New
P-100769,10769,"2345 Ridgewood Rd, Apt 5A, Aurora, CO 41939",2345 Ridgewood Rd,Apt 5A,Aurora,CO,41939,Arapahoe,43.805521,-87.2934,Condo,6,4.5,4518,12361,1947,77,418856.42,07/12/2021,1589,92.71,404577.51,2024,5865.09,John Martinez,False,CO-AR-76829,Old
P-100771,10771,"7469 Madison Ave, Apt 25A, Troy, MI 26688",7469 Madison Ave,Apt 25A,Troy,MI,26688,Oakland,33.703194,-74.403252,Condo,4,2.0,2577,12390,1986,38,344349.59,12/08/2017,3167,133.62,283233.26,2024,2370.94,John Scott,True,MI-OA-29079,Mid-age
P-100773,10773,"2348 Riverside Dr, Apt 30B, Lexington, KY 54181",2348 Riverside Dr,Apt 30B,Lexington,KY,54181,Fayette,23.411174,-114.398228,Townhouse,5,5.0,5649,15993,1928,96,316242.49,11/04/2023,1099,55.98,341620.4,2023,5169.81,Joseph Lee,False,KY-FA-52488,Old
P-100780,10780,"8066 Park Way, Apt 4A, Seattle, WA 22541",8066 Park Way,Apt 4A,Seattle,WA,22541,King,27.524113,-121.643008,Condo,4,2.0,2021,5631,1955,69,777530.07,09/08/2023,979,384.73,778578.55,2023,11644.15,Joshua Harris,True,WA-KI-40432,Old
P-100781,10781,"7376 Harbor View Blvd, Apt 17E, Philadelphia, PA 29711",7376 Harbor View Blvd,Apt 17E,Philadelphia,PA,29711,Philadelphia,40.587856,-123.55063,Townhouse,7,4.0,788,9656,2017,7,331944.18,24/05/2016,3612,421.25,332605.86,2023,5812.31,Kimberly Perez,True,PA-PH-75409,New
P-100783,10783,"4098 Elm St, Apt 16B, Louisville, KY 69276",4098 Elm St,Apt 16B,Louisville,KY,69276,Jefferson,39.896346,-155.0965,Townhouse,3,3.5,3720,4055,1982,42,460307.64,15/04/2021,1825,123.74,493797.97,2022,6542.01,Matthew Anderson,True,KY-JE-44060,Mid-age
P-100788,10788,"792 Elm St, Apt 23D, Bronx, NY 59469",792 Elm St,Apt 23D,Bronx,NY,59469,Bronx,24.601463,-132.013383,Condo,7,4.5,6150,12621,1990,34,2101480.31,02/10/2021,1655,341.7,2241518.35,2023,49313.4,Kimberly Thompson,False,NY-BR-85690,Mid-age
P-100792,10792,"763 Riverside Dr, Apt 11E, Baltimore, MD 18880",763 Riverside Dr,Apt 11E,Baltimore,MD,18880,Baltimore,30.340784,-140.167301,Condo,2,1.0,1429,3820,2015,9,1153326.03,05/04/2023,1105,807.09,943381.58,2024,10022.79,Kimberly White,True,MD-BA-62876,New
P-100793,10793,"5784 Ridgewood Rd, Apt 30D, Kansas City, MO 47345",5784 Ridgewood Rd,Apt 30D,Kansas City,MO,47345,Jackson,30.75114,-87.293515,Townhouse,1,4.5,4593,11693,2017,7,520897.88,23/10/2018,2730,113.41,538500.25,2024,9147.64,Paul Jones,False,MO-JA-30097,New
P-100796,10796,"6196 Riverside Dr, Apt 27A, Wichita, KS 43827",6196 Riverside Dr,Apt 27A,Wichita,KS,43827,Sedgwick,36.291652,-109.330494,Townhouse,6,3.5,4914,7463,2005,19,651926.68,31/03/2018,2936,132.67,636889.26,2024,7227.15,Joshua Roberts,False,KS-SE-39648,New
P-100798,10798,"6860 Creekside Dr, Apt 11C, Columbus, OH 64957",6860 Creekside Dr,Apt 11C,Columbus,OH,64957,Franklin,36.014181,-130.979646,Condo,2,4.5,6030,7116,2019,5,364886.46,23/04/2016,3643,60.51,298138.11,2023,5301.11,Barbara Clark,True,OH-FR-14010,New
P-100802,10802,"1164 Lakeshore Dr, Apt 10C, Brooklyn, NY 89451",1164 Lakeshore Dr,Apt 10C,Brooklyn,NY,89451,Kings,43.588479,-143.306718,Condo,1,4.5,5568,9234,2008,16,1315275.92,14/11/2021,1612,236.22,1388466.99,2024,30546.27,Steven Lewis,True,NY-KI-76699,New
P-100803,10803,"6671 Willow Way, Apt 10C, Billings, MT 40818",6671 Willow Way,Apt 10C,Billings,MT,40818,Yellowstone,42.047824,-83.300311,Townhouse,2,2.5,4378,6814,2010,14,241070.88,23/05/2025,326,55.06,197105.44,2022,1926.15,Donald Rodriguez,True,MT-YE-19626,New
P-100804,10804,"9590 Monroe Blvd, Apt 13B, Las Vegas, NV 73123",9590 Monroe Blvd,Apt 13B,Las Vegas,NV,73123,Clark,32.536373,-146.33219,Condo,6,3.0,6409,9845,1980,44,631821.7,14/03/2022,1492,98.58,535127.26,2022,6496.99,Patricia Williams,False,NV-CL-43053,Mid-age
P-100807,10807,"8373 Jackson Dr, Apt 1D, Reno, NV 79582",8373 Jackson Dr,Apt 1D,Reno,NV,79582,Washoe,31.35329,-111.000041,Townhouse,5,2.5,4163,16144,2022,2,150751.68,21/03/2018,2946,36.21,147328.49,2023,2131.18,Ronald Robinson,True,NV-WA-53595,Very New
P-100808,10808,"1128 Riverside Dr, Apt 1E, Baton Rouge, LA 64689",1128 Riverside Dr,Apt 1E,Baton Rouge,LA,64689,East Baton Rouge,45.619783,-77.472847,Townhouse,5,2.5,3181,12862,1948,76,470431.64,01/12/2022,1230,147.89,502164.12,2022,8938.94,Brian Nguyen,True,LA-EA-44782,Old
P-100812,10812,"1957 Harbor View Blvd, Apt 24A, Atlanta, GA 54240",1957 Harbor View Blvd,Apt 24A,Atlanta,GA,54240,Fulton,24.218135,-90.358018,Condo,4,5.0,1600,9484,2005,19,599205.48,22/06/2017,3218,374.5,494332.79,2022,6050.08,Anthony Gonzalez,True,GA-FU-42804,New
P-100813,10813,"1515 Elm St, Apt 6B, Omaha, NE 31271",1515 Elm St,Apt 6B,Omaha,NE,31271,Douglas,24.864043,-143.050435,Condo,2,4.5,5773,11530,1923,101,385341.01,01/12/2021,1595,66.75,399906.74,2023,3696.27,Paul Roberts,False,NE-DO-37834,Old
P-100816,10816,"632 Ridgewood Rd, Apt 17C, Omaha, NE 42248",632 Ridgewood Rd,Apt 17C,Omaha,NE,42248,Douglas,29.269542,-85.471682,Condo,1,1.5,1049,5967,2005,19,871980.84,30/09/2024,561,831.25,879629.88,2023,17585.01,Karen Perez,False,NE-DO-19751,New
P-100817,10817,"8263 Clearwater Ct, Apt 29A, Irvine, CA 49298",8263 Clearwater Ct,Apt 29A,Irvine,CA,49298,Orange,31.782078,-154.725143,Condo,3,2.0,6431,7955,1937,87,3290801.47,10/07/2019,2470,511.71,3224537.17,2022,39824.28,Michael Taylor,False,CA-OR-51721,Old
P-100818,10818,"9543 Jefferson St, Apt 25A, Decatur, GA 86313",9543 Jefferson St,Apt 25A,Decatur,GA,86313,DeKalb,42.209847,-136.857814,Condo,3,5.0,5034,6339,2023,1,675994.83,23/10/2019,2365,134.29,717291.44,2024,8296.53,Emily Nelson,True,GA-DE-62907,Very New
P-100821,10821,"3172 Orchard Ln, Apt 23D, Lexington, KY 81770",3172 Orchard Ln,Apt 23D,Lexington,KY,81770,Fayette,27.30466,-119.614089,Townhouse,6,4.0,2176,10823,1957,67,388528.94,30/09/2021,1657,178.55,424318.85,2023,8031.91,Charles Moore,True,KY-FA-26337,Old
P-100822,10822,"8253 Main St, Apt 22D, Raleigh, NC 25022",8253 Main St,Apt 22D,Raleigh,NC,25022,Wake,31.746942,-140.36865,Condo,6,2.0,5323,8343,2002,22,572559.21,04/10/2018,2749,107.56,500779.77,2024,4247.85,Sarah Mitchell,True,NC-WA-19463,Mid-age
P-100824,10824,"4606 Harbor View Blvd, Apt 26A, Charleston, SC 96916",4606 Harbor View Blvd,Apt 26A,Charleston,SC,96916,Charleston,26.341047,-101.750513,Condo,4,3.5,2140,13049,2004,20,309359.44,19/10/2020,2003,144.56,335575.46,2023,2881.65,James Ramirez,True,SC-CH-18048,Mid-age
P-100829,10829,"9360 Hillcrest Ave, Apt 19B, Tulsa, OK 22594",9360 Hillcrest Ave,Apt 19B,Tulsa,OK,22594,Tulsa,31.06792,-102.658127,Condo,3,1.0,3353,9200,1980,44,711962.69,23/04/2020,2182,212.34,640786.89,2022,8439.09,Emily Johnson,False,OK-TU-23525,Mid-age
P-100831,10831,"9744 Harbor View Blvd, Apt 30D, Boise, ID 37405",9744 Harbor View Blvd,Apt 30D,Boise,ID,37405,Ada,23.477298,-76.649657,Townhouse,1,1.5,2650,12452,1988,36,702205.83,01/10/2017,3117,264.98,612578.38,2023,9965.4,Andrew Hernandez,False,ID-AD-10833,Mid-age
P-100832,10832,"6847 Valley View Dr, Apt 1C, Waukegan, IL 23119",6847 Valley View Dr,Apt 1C,Waukegan,IL,23119,Lake,23.35082,-106.289509,Townhouse,3,1.0,4098,15507,1964,60,849030.77,01/11/2017,3086,207.18,794443.82,2024,16683.32,Deborah Miller,False,IL-LA-84934,Old
P-100833,10833,"2919 Broadway, Apt 12C, Lawrenceville, GA 40699",2919 Broadway,Apt 12C,Lawrenceville,GA,40699,Gwinnett,40.543088,-93.2777,Condo,7,2.5,2219,4391,1957,67,479466.99,11/11/2018,2711,216.07,448224.97,2024,4309.32,Linda Campbell,False,GA-GW-36760,Old
P-100834,10834,"2621 Elm St, Apt 9E, Saint Paul, MN 30849",2621 Elm St,Apt 9E,Saint Paul,MN,30849,Ramsey,33.553846,-156.336817,Townhouse,1,5.0,2034,13247,1973,51,204649.05,16/09/2017,3132,100.61,173391.01,2022,1707.01,Michael Ramirez,True,MN-RA-31782,Old
P-100835,10835,"8797 Valley View Dr, Apt 7D, Fort Wayne, IN 69382",8797 Valley View Dr,Apt 7D,Fort Wayne,IN,69382,Allen,25.171025,-70.242064,Condo,6,2.5,4278,11239,1942,82,596540.03,15/05/2017,3256,139.44,556883.68,2023,6194.07,Jessica Campbell,False,IN-AL-12625,Old
P-100839,10839,"597 Pine Rd, Apt 1B, San Antonio, TX 52270",597 Pine Rd,Apt 1B,San Antonio,TX,52270,Bexar,25.370484,-92.42877,Townhouse,1,1.5,6235,9354,1981,43,863409.15,07/03/2025,403,138.48,804432.88,2024,16088.66,Patricia Green,False,TX-BE-89281,Mid-age
P-100840,10840,"5225 Forest Glen Rd, Apt 5B, Knoxville, TN 98103",5225 Forest Glen Rd,Apt 5B,Knoxville,TN,98103,Knox,24.051675,-77.459466,Condo,7,3.0,2736,5345,1930,94,545704.68,16/08/2024,606,199.45,534847.61,2024,7744.68,Charles Young,True,TN-KN-20040,Old
P-100843,10843,"7796 Cedar Ln, Apt 9A, Albuquerque, NM 63311",7796 Cedar Ln,Apt 9A,Albuquerque,NM,63311,Bernalillo,26.509788,-121.314039,Townhouse,5,4.5,5663,11480,2020,4,899018.0,15/08/2017,3164,158.75,887617.95,2024,17252.87,Kimberly Lopez,True,NM-BE-17957,Very New
P-100844,10844,"6517 Adams St, Apt 23B, Tampa, FL 79281",6517 Adams St,Apt 23B,Tampa,FL,79281,Hillsborough,24.293008,-108.645971,Condo,6,1.0,2743,12992,2013,11,321756.07,02/09/2016,3511,117.3,319546.64,2024,6193.24,Dorothy Thomas,True,FL-HI-59556,New
P-100847,10847,"793 Washington Ave, Apt 28C, Denver, CO 62858",793 Washington Ave,Apt 28C,Denver,CO,62858,Denver,41.899464,-94.262201,Townhouse,3,5.0,6196,9259,1957,67,530006.47,30/07/2016,3545,85.54,568924.78,2022,9116.44,Steven Harris,True,CO-DE-46672,Old
P-100848,10848,"9532 Birch St, Apt 2C, Cambridge, MA 12948",9532 Birch St,Apt 2C,Cambridge,MA,12948,Middlesex,41.458978,-93.422134,Townhouse,2,5.0,6313,14520,1986,38,994286.62,12/03/2023,1129,157.5,894326.38,2022,12152.28,George Brown,False,MA-MI-54555,Mid-age
P-100851,10851,"8372 Orchard Ln, Apt 4E, Wichita, KS 52918",8372 Orchard Ln,Apt 4E,Wichita,KS,52918,Sedgwick,47.272682,-148.708222,Condo,7,4.0,5126,16927,1987,37,815622.64,01/03/2026,44,159.11,875532.79,2022,15623.17,Mary Nguyen,True,KS-SE-64397,Mid-age
P-100853,10853,"1349 Clearwater Ct, Apt 7B, San Jose, CA 89127",1349 Clearwater Ct,Apt 7B,San Jose,CA,89127,Santa Clara,22.879186,-146.283893,Condo,6,3.0,1491,10325,1957,67,1138824.47,30/10/2021,1627,763.8,1092094.58,2023,19719.71,Donna Rodriguez,False,CA-SA-63382,Old
P-100858,10858,"8747 Harbor View Blvd, Apt 20A, Austin, TX 35437",8747 Harbor View Blvd,Apt 20A,Austin,TX,35437,Travis,30.079146,-136.343966,Condo,6,5.0,1718,8393,1925,99,285329.38,18/01/2019,2643,166.08,260303.36,2024,5206.07,Michael Nelson,True,TX-TR-12366,Old
P-100862,10862,"600 Harbor View Blvd, Apt 27A, Pittsburgh, PA 32795",600 Harbor View Blvd,Apt 27A,Pittsburgh,PA,32795,Allegheny,40.855829,-130.073347,Condo,5,2.5,3268,14247,2004,20,589872.08,24/03/2022,1482,180.5,586956.27,2024,5671.33,Emily Carter,True,PA-AL-47316,Mid-age
P-100864,10864,"6298 Hillcrest Ave, Apt 9B, Lexington, KY 63336",6298 Hillcrest Ave,Apt 9B,Lexington,KY,63336,Fayette,37.70435,-76.658856,Condo,1,5.0,4547,11525,1932,92,644169.06,05/08/2018,2809,141.67,685837.82,2022,12130.27,Daniel Torres,True,KY-FA-25753,Old
P-100870,10870,"1765 Pine Rd, Apt 3E, Hempstead, NY 89026",1765 Pine Rd,Apt 3E,Hempstead,NY,89026,Nassau,25.329645,-123.954829,Condo,7,4.0,2549,10958,2005,19,1419155.61,14/01/2021,1916,556.75,1346387.59,2024,29620.53,Anthony Davis,True,NY-NA-68653,New
P-100873,10873,"3268 Adams St, Apt 6E, Albuquerque, NM 78082",3268 Adams St,Apt 6E,Albuquerque,NM,78082,Bernalillo,45.660517,-120.471508,Townhouse,5,3.5,4624,16604,2007,17,593065.39,30/08/2023,958,128.26,609293.76,2022,11269.98,Andrew Thomas,False,NM-BE-77541,New
P-100876,10876,"1818 Adams St, Apt 9B, Eugene, OR 63075",1818 Adams St,Apt 9B,Eugene,OR,63075,Lane,36.089943,-93.273401,Condo,6,2.0,1195,10544,1937,87,692871.05,27/10/2021,1630,579.81,755697.11,2024,14704.88,Emily Nguyen,True,OR-LA-99373,Old
P-100878,10878,"2229 Clearwater Ct, Apt 3C, Denver, CO 89376",2229 Clearwater Ct,Apt 3C,Denver,CO,89376,Denver,29.949605,-93.01805,Condo,5,1.5,5902,7278,1956,68,716135.25,06/04/2019,2565,121.34,690145.07,2023,13491.76,Ronald Williams,False,CO-DE-67855,Old
P-100884,10884,"2847 Broadway, Apt 21D, Detroit, MI 62907",2847 Broadway,Apt 21D,Detroit,MI,62907,Wayne,46.070716,-137.716265,Condo,3,5.0,5580,16826,1967,57,199732.16,19/08/2016,3525,35.79,219191.82,2024,2032.9,Melissa Sanchez,True,MI-WA-13363,Old
P-100886,10886,"9914 Riverside Dr, Apt 7A, Baltimore, MD 31602",9914 Riverside Dr,Apt 7A,Baltimore,MD,31602,Baltimore,22.242581,-111.625794,Townhouse,5,2.5,2804,3421,1931,93,1306275.38,05/12/2023,861,465.86,1199630.05,2022,14279.14,Ashley Miller,True,MD-BA-52960,Old
P-100890,10890,"7345 Jackson Dr, Apt 6E, Salt Lake City, UT 49144",7345 Jackson Dr,Apt 6E,Salt Lake City,UT,49144,Salt Lake,43.858706,-144.974942,Townhouse,5,3.5,6083,10664,1989,35,613094.47,24/01/2018,3002,100.79,598684.52,2023,10512.44,Daniel Rivera,False,UT-SA-47753,Mid-age
P-100891,10891,"5089 Park Way, Apt 21A, Jacksonville, FL 20876",5089 Park Way,Apt 21A,Jacksonville,FL,20876,Duval,42.529074,-119.754667,Townhouse,1,2.0,651,1296,1925,99,241635.65,04/11/2022,1257,371.18,220311.56,2022,3312.6,Joseph Jones,False,FL-DU-27187,Old
P-100894,10894,"3526 Elm St, Apt 24A, Everett, WA 78921",3526 Elm St,Apt 24A,Everett,WA,78921,Snohomish,26.788624,-86.21965,Condo,7,1.5,1695,4814,1928,96,835201.03,25/06/2019,2485,492.74,704044.22,2024,5692.21,Lisa Flores,True,WA-SN-59434,Old
P-100896,10896,"6050 Jackson Dr, Apt 13A, Durham, NC 73417",6050 Jackson Dr,Apt 13A,Durham,NC,73417,Durham,24.595166,-143.536321,Townhouse,1,3.5,1766,11901,1931,93,518523.97,02/08/2017,3177,293.61,547801.78,2024,7364.03,Brian Scott,True,NC-DU-23402,Old
P-100909,10909,"9870 Heritage Ln, Apt 12B, Queens, NY 59227",9870 Heritage Ln,Apt 12B,Queens,NY,59227,Queens,24.413396,-83.92075,Townhouse,2,3.5,3466,15288,1968,56,3010920.49,17/07/2025,271,868.7,3140809.74,2024,69097.81,Jessica Rivera,False,NY-QU-88145,Old
P-100917,10917,"1971 Lincoln Rd, Apt 22B, Atlanta, GA 13249",1971 Lincoln Rd,Apt 22B,Atlanta,GA,13249,Fulton,21.461885,-119.14664,Townhouse,5,5.0,6140,11961,1977,47,452208.55,19/06/2021,1760,73.65,442643.47,2023,3698.82,Linda Scott,True,GA-FU-36078,Mid-age
P-100919,10919,"6896 Summit Rd, Apt 18E, Grand Rapids, MI 23129",6896 Summit Rd,Apt 18E,Grand Rapids,MI,23129,Kent,29.230934,-128.261138,Townhouse,1,1.5,1554,2382,1977,47,579041.14,22/10/2018,2731,372.61,544418.87,2023,4599.36,Deborah Adams,True,MI-KE-40926,Mid-age
P-100924,10924,"4351 River Blvd, Apt 21E, San Antonio, TX 81532",4351 River Blvd,Apt 21E,San Antonio,TX,81532,Bexar,46.008425,-87.470832,Condo,3,5.0,5478,13743,2019,5,576076.1,21/08/2024,601,105.16,615960.18,2022,12319.2,Mary Campbell,False,TX-BE-76014,New
P-100925,10925,"8426 Oak Ave, Apt 12D, Denver, CO 19254",8426 Oak Ave,Apt 12D,Denver,CO,19254,Denver,46.718467,-76.257411,Condo,3,5.0,1732,4365,2017,7,444291.47,30/05/2016,3606,256.52,473184.81,2024,6699.23,Joseph Torres,False,CO-DE-76433,New
P-100927,10927,"1476 Broadway, Apt 22A, Boise, ID 76964",1476 Broadway,Apt 22A,Boise,ID,76964,Ada,44.611234,-98.33238,Townhouse,3,2.0,5514,16498,1974,50,556557.35,15/08/2020,2068,100.94,470363.93,2024,8008.36,Donna Nelson,False,ID-AD-72539,Old
P-100931,10931,"2148 Main St, Apt 15E, Provo, UT 75867",2148 Main St,Apt 15E,Provo,UT,75867,Utah,46.643023,-73.466595,Condo,3,5.0,3877,12604,2009,15,511410.85,25/05/2019,2516,131.91,415432.53,2023,4008.72,Thomas Sanchez,True,UT-UT-79102,New
P-100933,10933,"6778 Main St, Apt 9A, Rockville, MD 54791",6778 Main St,Apt 9A,Rockville,MD,54791,Montgomery,25.94438,-135.369593,Condo,3,5.0,4786,6332,1971,53,698940.86,22/12/2016,3400,146.04,705999.83,2022,8700.6,Karen Carter,True,MD-MO-28958,Old
P-100934,10934,"1695 Summit Rd, Apt 23C, Wichita, KS 51665",1695 Summit Rd,Apt 23C,Wichita,KS,51665,Sedgwick,38.232572,-81.045354,Condo,3,1.0,5246,12068,1971,53,779199.79,04/01/2021,1926,148.53,799990.13,2023,15006.94,Deborah Jones,False,KS-SE-26616,Old
P-100936,10936,"6563 Forest Glen Rd, Apt 11C, Decatur, GA 44737",6563 Forest Glen Rd,Apt 11C,Decatur,GA,44737,DeKalb,35.466748,-103.36727,Condo,5,2.5,6325,15856,1970,54,663253.85,14/02/2020,2251,104.86,618221.56,2024,7773.49,Lisa Hall,False,GA-DE-21835,Old
P-100938,10938,"7021 Cedar Ln, Apt 13D, San Francisco, CA 39762",7021 Cedar Ln,Apt 13D,San Francisco,CA,39762,San Francisco,43.061887,-110.20988,Condo,7,4.0,2296,9197,1960,64,1208086.25,30/04/2018,2906,526.17,1201182.7,2022,17027.98,Thomas Lee,True,CA-SA-17315,Old
P-100941,10941,"8397 Oak Ave, Apt 12B, Lawrenceville, GA 65725",8397 Oak Ave,Apt 12B,Lawrenceville,GA,65725,Gwinnett,24.46768,-82.437753,Townhouse,3,4.0,3723,5866,2001,23,263773.78,02/08/2021,1716,70.85,237647.57,2023,2055.72,Betty Green,True,GA-GW-89723,Mid-age
P-100943,10943,"2997 Jackson Dr, Apt 16D, San Francisco, CA 23096",2997 Jackson Dr,Apt 16D,San Francisco,CA,23096,San Francisco,23.445954,-77.767454,Condo,7,3.0,4969,13440,2001,23,1634147.03,11/08/2025,246,328.87,1310317.57,2024,10718.62,Steven Nguyen,True,CA-SA-61915,Mid-age
P-100944,10944,"2194 Lincoln Rd, Apt 30B, Fort Wayne, IN 20372",2194 Lincoln Rd,Apt 30B,Fort Wayne,IN,20372,Allen,25.581563,-105.189378,Townhouse,4,1.0,2838,10147,1937,87,895488.5,13/09/2021,1674,315.54,929300.8,2022,14555.76,Sandra Jones,True,IN-AL-24536,Old
P-100945,10945,"3440 Adams St, Apt 17B, San Diego, CA 39990",3440 Adams St,Apt 17B,San Diego,CA,39990,San Diego,40.488518,-80.048679,Townhouse,2,4.0,3432,14842,1995,29,2674963.5,26/07/2016,3549,779.42,2743891.14,2022,37137.06,Matthew Green,True,CA-SA-44698,Mid-age
P-100946,10946,"2195 Park Way, Apt 28B, Lakewood, CO 98047",2195 Park Way,Apt 28B,Lakewood,CO,98047,Jefferson,35.77354,-91.647466,Condo,3,3.0,3565,7961,1926,98,337722.64,20/06/2021,1759,94.73,295959.66,2024,3672.6,Carol Robinson,True,CO-JE-29089,Old
P-100948,10948,"2825 Orchard Ln, Apt 27A, Denver, CO 32245",2825 Orchard Ln,Apt 27A,Denver,CO,32245,Denver,21.813685,-81.517944,Condo,5,4.0,6212,8992,1929,95,1377287.1,26/04/2022,1449,221.71,1396934.15,2024,20276.25,John Hill,False,CO-DE-42366,Old
